{"meta":{"source":"IBGE — API de Localidades e API de Malhas","sourceUrl":"https://servicodados.ibge.gov.br/api/docs/","coordinateMethod":"Centroide do maior polígono municipal na malha de qualidade mínima","generatedAt":"2026-07-21T22:34:35.174Z","uf":"CE","total":184},"municipalities":[{"ibgeCode":"2300101","name":"Abaiara","latitude":-7.36081,"longitude":-39.03609},{"ibgeCode":"2300150","name":"Acarape","latitude":-4.2156,"longitude":-38.6617},{"ibgeCode":"2300200","name":"Acaraú","latitude":-2.96859,"longitude":-40.08678},{"ibgeCode":"2300309","name":"Acopiara","latitude":-6.12271,"longitude":-39.49524},{"ibgeCode":"2300408","name":"Aiuaba","latitude":-6.60453,"longitude":-40.29771},{"ibgeCode":"2300507","name":"Alcântaras","latitude":-3.59506,"longitude":-40.54597},{"ibgeCode":"2300606","name":"Altaneira","latitude":-6.98504,"longitude":-39.69283},{"ibgeCode":"2300705","name":"Alto Santo","latitude":-5.51648,"longitude":-38.241},{"ibgeCode":"2300754","name":"Amontada","latitude":-3.23875,"longitude":-39.78496},{"ibgeCode":"2300804","name":"Antonina do Norte","latitude":-6.75776,"longitude":-39.98405},{"ibgeCode":"2300903","name":"Apuiarés","latitude":-3.96938,"longitude":-39.33049},{"ibgeCode":"2301000","name":"Aquiraz","latitude":-3.97591,"longitude":-38.39414},{"ibgeCode":"2301109","name":"Aracati","latitude":-4.68013,"longitude":-37.68644},{"ibgeCode":"2301208","name":"Aracoiaba","latitude":-4.48323,"longitude":-38.71506},{"ibgeCode":"2301257","name":"Ararendá","latitude":-4.77362,"longitude":-40.74707},{"ibgeCode":"2301307","name":"Araripe","latitude":-7.23884,"longitude":-40.07647},{"ibgeCode":"2301406","name":"Aratuba","latitude":-4.41352,"longitude":-39.02482},{"ibgeCode":"2301505","name":"Arneiroz","latitude":-6.23794,"longitude":-40.15213},{"ibgeCode":"2301604","name":"Assaré","latitude":-6.9101,"longitude":-39.86957},{"ibgeCode":"2301703","name":"Aurora","latitude":-6.9883,"longitude":-38.96757},{"ibgeCode":"2301802","name":"Baixio","latitude":-6.71272,"longitude":-38.74915},{"ibgeCode":"2301851","name":"Banabuiú","latitude":-5.26287,"longitude":-38.90313},{"ibgeCode":"2301901","name":"Barbalha","latitude":-7.40702,"longitude":-39.34652},{"ibgeCode":"2301950","name":"Barreira","latitude":-4.32031,"longitude":-38.61992},{"ibgeCode":"2302008","name":"Barro","latitude":-7.12462,"longitude":-38.79496},{"ibgeCode":"2302057","name":"Barroquinha","latitude":-2.9698,"longitude":-41.17322},{"ibgeCode":"2302107","name":"Baturité","latitude":-4.38705,"longitude":-38.85124},{"ibgeCode":"2302206","name":"Beberibe","latitude":-4.40265,"longitude":-38.11353},{"ibgeCode":"2302305","name":"Bela Cruz","latitude":-3.05353,"longitude":-40.308},{"ibgeCode":"2302404","name":"Boa Viagem","latitude":-5.08645,"longitude":-39.80847},{"ibgeCode":"2302503","name":"Brejo Santo","latitude":-7.55399,"longitude":-38.92122},{"ibgeCode":"2302602","name":"Camocim","latitude":-2.94951,"longitude":-40.79924},{"ibgeCode":"2302701","name":"Campos Sales","latitude":-6.93579,"longitude":-40.27202},{"ibgeCode":"2302800","name":"Canindé","latitude":-4.40283,"longitude":-39.43029},{"ibgeCode":"2302909","name":"Capistrano","latitude":-4.47078,"longitude":-38.90599},{"ibgeCode":"2303006","name":"Caridade","latitude":-4.20361,"longitude":-39.10876},{"ibgeCode":"2303105","name":"Cariré","latitude":-3.95155,"longitude":-40.52385},{"ibgeCode":"2303204","name":"Caririaçu","latitude":-7.0209,"longitude":-39.27468},{"ibgeCode":"2303303","name":"Cariús","latitude":-6.64442,"longitude":-39.46284},{"ibgeCode":"2303402","name":"Carnaubal","latitude":-4.13017,"longitude":-41.01167},{"ibgeCode":"2303501","name":"Cascavel","latitude":-4.23854,"longitude":-38.29718},{"ibgeCode":"2303600","name":"Catarina","latitude":-6.25547,"longitude":-39.90826},{"ibgeCode":"2303659","name":"Catunda","latitude":-4.62988,"longitude":-40.17531},{"ibgeCode":"2303709","name":"Caucaia","latitude":-3.78254,"longitude":-38.81083},{"ibgeCode":"2303808","name":"Cedro","latitude":-6.56947,"longitude":-39.09432},{"ibgeCode":"2303907","name":"Chaval","latitude":-3.09142,"longitude":-41.2309},{"ibgeCode":"2303931","name":"Choró","latitude":-4.77335,"longitude":-39.19082},{"ibgeCode":"2303956","name":"Chorozinho","latitude":-4.30606,"longitude":-38.47043},{"ibgeCode":"2304004","name":"Coreaú","latitude":-3.64258,"longitude":-40.72614},{"ibgeCode":"2304103","name":"Crateús","latitude":-5.1998,"longitude":-40.71827},{"ibgeCode":"2304202","name":"Crato","latitude":-7.23231,"longitude":-39.48961},{"ibgeCode":"2304236","name":"Croatá","latitude":-4.38822,"longitude":-40.97586},{"ibgeCode":"2304251","name":"Cruz","latitude":-2.89565,"longitude":-40.32558},{"ibgeCode":"2304269","name":"Deputado Irapuan Pinheiro","latitude":-5.88475,"longitude":-39.26658},{"ibgeCode":"2304277","name":"Ereré","latitude":-5.98652,"longitude":-38.31252},{"ibgeCode":"2304285","name":"Eusébio","latitude":-3.87722,"longitude":-38.45891},{"ibgeCode":"2304301","name":"Farias Brito","latitude":-6.91123,"longitude":-39.54931},{"ibgeCode":"2304350","name":"Forquilha","latitude":-3.82298,"longitude":-40.22519},{"ibgeCode":"2304400","name":"Fortaleza","latitude":-3.78558,"longitude":-38.52766},{"ibgeCode":"2304459","name":"Fortim","latitude":-4.46247,"longitude":-37.87122},{"ibgeCode":"2304509","name":"Frecheirinha","latitude":-3.71174,"longitude":-40.8215},{"ibgeCode":"2304608","name":"General Sampaio","latitude":-4.06293,"longitude":-39.44776},{"ibgeCode":"2304657","name":"Graça","latitude":-4.04562,"longitude":-40.77359},{"ibgeCode":"2304707","name":"Granja","latitude":-3.23109,"longitude":-41.00213},{"ibgeCode":"2304806","name":"Granjeiro","latitude":-6.9087,"longitude":-39.24758},{"ibgeCode":"2304905","name":"Groaíras","latitude":-3.91201,"longitude":-40.36453},{"ibgeCode":"2304954","name":"Guaiúba","latitude":-4.10286,"longitude":-38.66708},{"ibgeCode":"2305001","name":"Guaraciaba do Norte","latitude":-4.23336,"longitude":-40.91584},{"ibgeCode":"2305100","name":"Guaramiranga","latitude":-4.25215,"longitude":-38.95317},{"ibgeCode":"2305209","name":"Hidrolândia","latitude":-4.43267,"longitude":-40.40659},{"ibgeCode":"2305233","name":"Horizonte","latitude":-4.10196,"longitude":-38.4657},{"ibgeCode":"2305266","name":"Ibaretama","latitude":-4.77939,"longitude":-38.7228},{"ibgeCode":"2305308","name":"Ibiapina","latitude":-3.94978,"longitude":-41.0002},{"ibgeCode":"2305332","name":"Ibicuitinga","latitude":-4.97506,"longitude":-38.55913},{"ibgeCode":"2305357","name":"Icapuí","latitude":-4.73906,"longitude":-37.4124},{"ibgeCode":"2305407","name":"Icó","latitude":-6.38802,"longitude":-38.78204},{"ibgeCode":"2305506","name":"Iguatu","latitude":-6.35877,"longitude":-39.28298},{"ibgeCode":"2305605","name":"Independência","latitude":-5.47495,"longitude":-40.34224},{"ibgeCode":"2305654","name":"Ipaporanga","latitude":-4.90966,"longitude":-40.8035},{"ibgeCode":"2305704","name":"Ipaumirim","latitude":-6.80667,"longitude":-38.74292},{"ibgeCode":"2305803","name":"Ipu","latitude":-4.36832,"longitude":-40.67081},{"ibgeCode":"2305902","name":"Ipueiras","latitude":-4.57362,"longitude":-40.87782},{"ibgeCode":"2306009","name":"Iracema","latitude":-5.77791,"longitude":-38.33601},{"ibgeCode":"2306108","name":"Irauçuba","latitude":-3.86707,"longitude":-39.81733},{"ibgeCode":"2306207","name":"Itaiçaba","latitude":-4.7192,"longitude":-37.84901},{"ibgeCode":"2306256","name":"Itaitinga","latitude":-3.99911,"longitude":-38.5498},{"ibgeCode":"2306306","name":"Itapajé","latitude":-3.73364,"longitude":-39.5751},{"ibgeCode":"2306405","name":"Itapipoca","latitude":-3.3946,"longitude":-39.59758},{"ibgeCode":"2306504","name":"Itapiúna","latitude":-4.59417,"longitude":-38.9526},{"ibgeCode":"2306553","name":"Itarema","latitude":-3.04994,"longitude":-39.88988},{"ibgeCode":"2306603","name":"Itatira","latitude":-4.62643,"longitude":-39.57832},{"ibgeCode":"2306702","name":"Jaguaretama","latitude":-5.49191,"longitude":-38.74696},{"ibgeCode":"2306801","name":"Jaguaribara","latitude":-5.6125,"longitude":-38.52451},{"ibgeCode":"2306900","name":"Jaguaribe","latitude":-5.96126,"longitude":-38.70763},{"ibgeCode":"2307007","name":"Jaguaruana","latitude":-4.86661,"longitude":-37.74612},{"ibgeCode":"2307106","name":"Jardim","latitude":-7.59027,"longitude":-39.24824},{"ibgeCode":"2307205","name":"Jati","latitude":-7.6924,"longitude":-38.99212},{"ibgeCode":"2307254","name":"Jijoca de Jericoacoara","latitude":-2.87857,"longitude":-40.49492},{"ibgeCode":"2307304","name":"Juazeiro do Norte","latitude":-7.18504,"longitude":-39.28635},{"ibgeCode":"2307403","name":"Jucás","latitude":-6.45995,"longitude":-39.60667},{"ibgeCode":"2307502","name":"Lavras da Mangabeira","latitude":-6.77753,"longitude":-38.99468},{"ibgeCode":"2307601","name":"Limoeiro do Norte","latitude":-5.15762,"longitude":-38.0477},{"ibgeCode":"2307635","name":"Madalena","latitude":-4.85787,"longitude":-39.50925},{"ibgeCode":"2307650","name":"Maracanaú","latitude":-3.87382,"longitude":-38.62726},{"ibgeCode":"2307700","name":"Maranguape","latitude":-4.00671,"longitude":-38.81008},{"ibgeCode":"2307809","name":"Marco","latitude":-3.19078,"longitude":-40.2639},{"ibgeCode":"2307908","name":"Martinópole","latitude":-3.16918,"longitude":-40.64936},{"ibgeCode":"2308005","name":"Massapê","latitude":-3.48302,"longitude":-40.39005},{"ibgeCode":"2308104","name":"Mauriti","latitude":-7.39717,"longitude":-38.71822},{"ibgeCode":"2308203","name":"Meruoca","latitude":-3.57741,"longitude":-40.45444},{"ibgeCode":"2308302","name":"Milagres","latitude":-7.27245,"longitude":-38.94318},{"ibgeCode":"2308351","name":"Milhã","latitude":-5.63908,"longitude":-39.16842},{"ibgeCode":"2308377","name":"Miraíma","latitude":-3.55966,"longitude":-39.90959},{"ibgeCode":"2308401","name":"Missão Velha","latitude":-7.30718,"longitude":-39.15308},{"ibgeCode":"2308500","name":"Mombaça","latitude":-5.78735,"longitude":-39.74869},{"ibgeCode":"2308609","name":"Monsenhor Tabosa","latitude":-4.91439,"longitude":-40.04432},{"ibgeCode":"2308708","name":"Morada Nova","latitude":-5.0336,"longitude":-38.43205},{"ibgeCode":"2308807","name":"Moraújo","latitude":-3.46247,"longitude":-40.68321},{"ibgeCode":"2308906","name":"Morrinhos","latitude":-3.28498,"longitude":-40.08728},{"ibgeCode":"2309003","name":"Mucambo","latitude":-3.8996,"longitude":-40.75739},{"ibgeCode":"2309102","name":"Mulungu","latitude":-4.32264,"longitude":-38.99384},{"ibgeCode":"2309201","name":"Nova Olinda","latitude":-7.09477,"longitude":-39.66556},{"ibgeCode":"2309300","name":"Nova Russas","latitude":-4.67872,"longitude":-40.52916},{"ibgeCode":"2309409","name":"Novo Oriente","latitude":-5.59239,"longitude":-40.77211},{"ibgeCode":"2309458","name":"Ocara","latitude":-4.52613,"longitude":-38.50808},{"ibgeCode":"2309508","name":"Orós","latitude":-6.2447,"longitude":-38.94572},{"ibgeCode":"2309607","name":"Pacajus","latitude":-4.18376,"longitude":-38.49654},{"ibgeCode":"2309706","name":"Pacatuba","latitude":-3.95354,"longitude":-38.59622},{"ibgeCode":"2309805","name":"Pacoti","latitude":-4.19906,"longitude":-38.90236},{"ibgeCode":"2309904","name":"Pacujá","latitude":-4.00558,"longitude":-40.68986},{"ibgeCode":"2310001","name":"Palhano","latitude":-4.7086,"longitude":-38.02746},{"ibgeCode":"2310100","name":"Palmácia","latitude":-4.12545,"longitude":-38.83909},{"ibgeCode":"2310209","name":"Paracuru","latitude":-3.47944,"longitude":-39.03893},{"ibgeCode":"2310258","name":"Paraipaba","latitude":-3.42247,"longitude":-39.17626},{"ibgeCode":"2310308","name":"Parambu","latitude":-6.30242,"longitude":-40.62885},{"ibgeCode":"2310407","name":"Paramoti","latitude":-4.16004,"longitude":-39.37671},{"ibgeCode":"2310506","name":"Pedra Branca","latitude":-5.49657,"longitude":-39.84707},{"ibgeCode":"2310605","name":"Penaforte","latitude":-7.77769,"longitude":-39.05377},{"ibgeCode":"2310704","name":"Pentecoste","latitude":-3.85458,"longitude":-39.146},{"ibgeCode":"2310803","name":"Pereiro","latitude":-6.03633,"longitude":-38.48825},{"ibgeCode":"2310852","name":"Pindoretama","latitude":-4.05534,"longitude":-38.30433},{"ibgeCode":"2310902","name":"Piquet Carneiro","latitude":-5.86241,"longitude":-39.45034},{"ibgeCode":"2310951","name":"Pires Ferreira","latitude":-4.25856,"longitude":-40.5855},{"ibgeCode":"2311009","name":"Poranga","latitude":-4.7991,"longitude":-41.07871},{"ibgeCode":"2311108","name":"Porteiras","latitude":-7.54168,"longitude":-39.10637},{"ibgeCode":"2311207","name":"Potengi","latitude":-7.07365,"longitude":-40.03601},{"ibgeCode":"2311231","name":"Potiretama","latitude":-5.74953,"longitude":-38.16691},{"ibgeCode":"2311264","name":"Quiterianópolis","latitude":-5.8723,"longitude":-40.76314},{"ibgeCode":"2311306","name":"Quixadá","latitude":-4.95559,"longitude":-38.94563},{"ibgeCode":"2311355","name":"Quixelô","latitude":-6.17539,"longitude":-39.11897},{"ibgeCode":"2311405","name":"Quixeramobim","latitude":-5.24494,"longitude":-39.33352},{"ibgeCode":"2311504","name":"Quixeré","latitude":-5.08792,"longitude":-37.86121},{"ibgeCode":"2311603","name":"Redenção","latitude":-4.2461,"longitude":-38.76219},{"ibgeCode":"2311702","name":"Reriutaba","latitude":-4.11914,"longitude":-40.61292},{"ibgeCode":"2311801","name":"Russas","latitude":-4.84336,"longitude":-38.14727},{"ibgeCode":"2311900","name":"Saboeiro","latitude":-6.48621,"longitude":-39.8874},{"ibgeCode":"2311959","name":"Salitre","latitude":-7.20342,"longitude":-40.36513},{"ibgeCode":"2312205","name":"Santa Quitéria","latitude":-4.34003,"longitude":-40.04291},{"ibgeCode":"2312007","name":"Santana do Acaraú","latitude":-3.46249,"longitude":-40.16604},{"ibgeCode":"2312106","name":"Santana do Cariri","latitude":-7.22237,"longitude":-39.75721},{"ibgeCode":"2312304","name":"São Benedito","latitude":-4.04101,"longitude":-40.96891},{"ibgeCode":"2312403","name":"São Gonçalo do Amarante","latitude":-3.60007,"longitude":-39.05989},{"ibgeCode":"2312502","name":"São João do Jaguaribe","latitude":-5.32638,"longitude":-38.272},{"ibgeCode":"2312601","name":"São Luís do Curu","latitude":-3.64617,"longitude":-39.26383},{"ibgeCode":"2312700","name":"Senador Pompeu","latitude":-5.58812,"longitude":-39.43331},{"ibgeCode":"2312809","name":"Senador Sá","latitude":-3.26832,"longitude":-40.4614},{"ibgeCode":"2312908","name":"Sobral","latitude":-3.81168,"longitude":-40.22788},{"ibgeCode":"2313005","name":"Solonópole","latitude":-5.77686,"longitude":-39.00335},{"ibgeCode":"2313104","name":"Tabuleiro do Norte","latitude":-5.36224,"longitude":-38.0264},{"ibgeCode":"2313203","name":"Tamboril","latitude":-4.91998,"longitude":-40.33607},{"ibgeCode":"2313252","name":"Tarrafas","latitude":-6.73034,"longitude":-39.73723},{"ibgeCode":"2313302","name":"Tauá","latitude":-5.93633,"longitude":-40.25922},{"ibgeCode":"2313351","name":"Tejuçuoca","latitude":-3.934,"longitude":-39.58311},{"ibgeCode":"2313401","name":"Tianguá","latitude":-3.73537,"longitude":-41.05379},{"ibgeCode":"2313500","name":"Trairi","latitude":-3.3377,"longitude":-39.35303},{"ibgeCode":"2313559","name":"Tururu","latitude":-3.55291,"longitude":-39.40375},{"ibgeCode":"2313609","name":"Ubajara","latitude":-3.86781,"longitude":-41.00613},{"ibgeCode":"2313708","name":"Umari","latitude":-6.62345,"longitude":-38.73091},{"ibgeCode":"2313757","name":"Umirim","latitude":-3.68765,"longitude":-39.38448},{"ibgeCode":"2313807","name":"Uruburetama","latitude":-3.62186,"longitude":-39.51681},{"ibgeCode":"2313906","name":"Uruoca","latitude":-3.32056,"longitude":-40.6762},{"ibgeCode":"2313955","name":"Varjota","latitude":-4.16591,"longitude":-40.49178},{"ibgeCode":"2314003","name":"Várzea Alegre","latitude":-6.77269,"longitude":-39.29782},{"ibgeCode":"2314102","name":"Viçosa do Ceará","latitude":-3.54846,"longitude":-41.1349}]}
