{"meta":{"source":"IBGE — API de Localidades e API de Malhas","sourceUrl":"https://servicodados.ibge.gov.br/api/docs/","coordinateMethod":"Centroide do maior polígono municipal na malha de qualidade mínima","generatedAt":"2026-07-21T06:10:55.913Z","uf":"GO","total":246},"municipalities":[{"ibgeCode":"5200050","name":"Abadia de Goiás","latitude":-16.78529,"longitude":-49.44946},{"ibgeCode":"5200100","name":"Abadiânia","latitude":-16.18666,"longitude":-48.7109},{"ibgeCode":"5200134","name":"Acreúna","latitude":-17.45182,"longitude":-50.32471},{"ibgeCode":"5200159","name":"Adelândia","latitude":-16.36346,"longitude":-50.18671},{"ibgeCode":"5200175","name":"Água Fria de Goiás","latitude":-14.90664,"longitude":-47.79688},{"ibgeCode":"5200209","name":"Água Limpa","latitude":-18.08185,"longitude":-48.792},{"ibgeCode":"5200258","name":"Águas Lindas de Goiás","latitude":-15.7558,"longitude":-48.28447},{"ibgeCode":"5200308","name":"Alexânia","latitude":-16.08824,"longitude":-48.48352},{"ibgeCode":"5200506","name":"Aloândia","latitude":-17.69478,"longitude":-49.46492},{"ibgeCode":"5200555","name":"Alto Horizonte","latitude":-14.17223,"longitude":-49.42892},{"ibgeCode":"5200605","name":"Alto Paraíso de Goiás","latitude":-14.18257,"longitude":-47.53398},{"ibgeCode":"5200803","name":"Alvorada do Norte","latitude":-14.56604,"longitude":-46.6349},{"ibgeCode":"5200829","name":"Amaralina","latitude":-13.84143,"longitude":-49.61771},{"ibgeCode":"5200852","name":"Americano do Brasil","latitude":-16.26074,"longitude":-50.00304},{"ibgeCode":"5200902","name":"Amorinópolis","latitude":-16.62496,"longitude":-51.10875},{"ibgeCode":"5201108","name":"Anápolis","latitude":-16.28965,"longitude":-48.97354},{"ibgeCode":"5201207","name":"Anhanguera","latitude":-18.31078,"longitude":-48.22576},{"ibgeCode":"5201306","name":"Anicuns","latitude":-16.39643,"longitude":-49.96989},{"ibgeCode":"5201405","name":"Aparecida de Goiânia","latitude":-16.81001,"longitude":-49.26108},{"ibgeCode":"5201454","name":"Aparecida do Rio Doce","latitude":-18.21647,"longitude":-51.26144},{"ibgeCode":"5201504","name":"Aporé","latitude":-18.76807,"longitude":-52.04516},{"ibgeCode":"5201603","name":"Araçu","latitude":-16.37048,"longitude":-49.70162},{"ibgeCode":"5201702","name":"Aragarças","latitude":-15.97022,"longitude":-52.15015},{"ibgeCode":"5201801","name":"Aragoiânia","latitude":-16.95075,"longitude":-49.41835},{"ibgeCode":"5202155","name":"Araguapaz","latitude":-15.1394,"longitude":-50.43914},{"ibgeCode":"5202353","name":"Arenópolis","latitude":-16.35703,"longitude":-51.58273},{"ibgeCode":"5202502","name":"Aruanã","latitude":-14.80434,"longitude":-50.937},{"ibgeCode":"5202601","name":"Aurilândia","latitude":-16.69651,"longitude":-50.52242},{"ibgeCode":"5202809","name":"Avelinópolis","latitude":-16.49299,"longitude":-49.76836},{"ibgeCode":"5203104","name":"Baliza","latitude":-16.36103,"longitude":-52.43901},{"ibgeCode":"5203203","name":"Barro Alto","latitude":-14.90969,"longitude":-48.88016},{"ibgeCode":"5203302","name":"Bela Vista de Goiás","latitude":-16.95669,"longitude":-48.91207},{"ibgeCode":"5203401","name":"Bom Jardim de Goiás","latitude":-16.16972,"longitude":-52.07467},{"ibgeCode":"5203500","name":"Bom Jesus de Goiás","latitude":-18.18971,"longitude":-49.87776},{"ibgeCode":"5203559","name":"Bonfinópolis","latitude":-16.60323,"longitude":-49.01564},{"ibgeCode":"5203575","name":"Bonópolis","latitude":-13.57056,"longitude":-49.85896},{"ibgeCode":"5203609","name":"Brazabrantes","latitude":-16.38357,"longitude":-49.37953},{"ibgeCode":"5203807","name":"Britânia","latitude":-15.23631,"longitude":-51.20798},{"ibgeCode":"5203906","name":"Buriti Alegre","latitude":-18.12573,"longitude":-49.00745},{"ibgeCode":"5203939","name":"Buriti de Goiás","latitude":-16.16981,"longitude":-50.45392},{"ibgeCode":"5203962","name":"Buritinópolis","latitude":-14.40839,"longitude":-46.29743},{"ibgeCode":"5204003","name":"Cabeceiras","latitude":-15.75917,"longitude":-46.99249},{"ibgeCode":"5204102","name":"Cachoeira Alta","latitude":-18.54328,"longitude":-50.98099},{"ibgeCode":"5204201","name":"Cachoeira de Goiás","latitude":-16.71741,"longitude":-50.6975},{"ibgeCode":"5204250","name":"Cachoeira Dourada","latitude":-18.48812,"longitude":-49.62387},{"ibgeCode":"5204300","name":"Caçu","latitude":-18.7,"longitude":-51.13189},{"ibgeCode":"5204409","name":"Caiapônia","latitude":-17.00741,"longitude":-51.814},{"ibgeCode":"5204508","name":"Caldas Novas","latitude":-17.70997,"longitude":-48.64607},{"ibgeCode":"5204557","name":"Caldazinha","latitude":-16.74486,"longitude":-48.97073},{"ibgeCode":"5204607","name":"Campestre de Goiás","latitude":-16.78836,"longitude":-49.70021},{"ibgeCode":"5204656","name":"Campinaçu","latitude":-13.88463,"longitude":-48.56908},{"ibgeCode":"5204706","name":"Campinorte","latitude":-14.04677,"longitude":-48.97522},{"ibgeCode":"5204805","name":"Campo Alegre de Goiás","latitude":-17.55072,"longitude":-47.76833},{"ibgeCode":"5204854","name":"Campo Limpo de Goiás","latitude":-16.284,"longitude":-49.10981},{"ibgeCode":"5204904","name":"Campos Belos","latitude":-13.0006,"longitude":-46.51216},{"ibgeCode":"5204953","name":"Campos Verdes","latitude":-14.1953,"longitude":-49.65911},{"ibgeCode":"5205000","name":"Carmo do Rio Verde","latitude":-15.4272,"longitude":-49.74331},{"ibgeCode":"5205059","name":"Castelândia","latitude":-18.15378,"longitude":-50.33584},{"ibgeCode":"5205109","name":"Catalão","latitude":-17.92962,"longitude":-47.66406},{"ibgeCode":"5205208","name":"Caturaí","latitude":-16.45531,"longitude":-49.58617},{"ibgeCode":"5205307","name":"Cavalcante","latitude":-13.63626,"longitude":-47.69509},{"ibgeCode":"5205406","name":"Ceres","latitude":-15.27687,"longitude":-49.63726},{"ibgeCode":"5205455","name":"Cezarina","latitude":-17.08125,"longitude":-49.75926},{"ibgeCode":"5205471","name":"Chapadão do Céu","latitude":-18.46527,"longitude":-52.63352},{"ibgeCode":"5205497","name":"Cidade Ocidental","latitude":-16.1234,"longitude":-47.81764},{"ibgeCode":"5205513","name":"Cocalzinho de Goiás","latitude":-15.65568,"longitude":-48.60224},{"ibgeCode":"5205521","name":"Colinas do Sul","latitude":-13.98513,"longitude":-48.07358},{"ibgeCode":"5205703","name":"Córrego do Ouro","latitude":-16.36476,"longitude":-50.58125},{"ibgeCode":"5205802","name":"Corumbá de Goiás","latitude":-15.92873,"longitude":-48.67845},{"ibgeCode":"5205901","name":"Corumbaíba","latitude":-18.16869,"longitude":-48.53088},{"ibgeCode":"5206206","name":"Cristalina","latitude":-16.69764,"longitude":-47.51669},{"ibgeCode":"5206305","name":"Cristianópolis","latitude":-17.21354,"longitude":-48.70904},{"ibgeCode":"5206404","name":"Crixás","latitude":-14.63863,"longitude":-50.06508},{"ibgeCode":"5206503","name":"Cromínia","latitude":-17.24046,"longitude":-49.35581},{"ibgeCode":"5206602","name":"Cumari","latitude":-18.32073,"longitude":-48.13273},{"ibgeCode":"5206701","name":"Damianópolis","latitude":-14.5558,"longitude":-46.19187},{"ibgeCode":"5206800","name":"Damolândia","latitude":-16.2577,"longitude":-49.33208},{"ibgeCode":"5206909","name":"Davinópolis","latitude":-18.11867,"longitude":-47.56167},{"ibgeCode":"5207105","name":"Diorama","latitude":-16.22321,"longitude":-51.35001},{"ibgeCode":"5208301","name":"Divinópolis de Goiás","latitude":-13.2641,"longitude":-46.51764},{"ibgeCode":"5207253","name":"Doverlândia","latitude":-16.80547,"longitude":-52.49258},{"ibgeCode":"5207352","name":"Edealina","latitude":-17.41764,"longitude":-49.73942},{"ibgeCode":"5207402","name":"Edéia","latitude":-17.47921,"longitude":-49.96486},{"ibgeCode":"5207501","name":"Estrela do Norte","latitude":-13.81416,"longitude":-49.08481},{"ibgeCode":"5207535","name":"Faina","latitude":-15.43593,"longitude":-50.37061},{"ibgeCode":"5207600","name":"Fazenda Nova","latitude":-16.15181,"longitude":-50.85839},{"ibgeCode":"5207808","name":"Firminópolis","latitude":-16.63891,"longitude":-50.31187},{"ibgeCode":"5207907","name":"Flores de Goiás","latitude":-14.65166,"longitude":-46.90534},{"ibgeCode":"5208004","name":"Formosa","latitude":-15.30788,"longitude":-47.24678},{"ibgeCode":"5208103","name":"Formoso","latitude":-13.72001,"longitude":-48.86662},{"ibgeCode":"5208152","name":"Gameleira de Goiás","latitude":-16.40224,"longitude":-48.67325},{"ibgeCode":"5208400","name":"Goianápolis","latitude":-16.51518,"longitude":-49.06493},{"ibgeCode":"5208509","name":"Goiandira","latitude":-18.1217,"longitude":-48.14005},{"ibgeCode":"5208608","name":"Goianésia","latitude":-15.2749,"longitude":-49.1669},{"ibgeCode":"5208707","name":"Goiânia","latitude":-16.64334,"longitude":-49.2737},{"ibgeCode":"5208806","name":"Goianira","latitude":-16.50202,"longitude":-49.42442},{"ibgeCode":"5208905","name":"Goiás","latitude":-15.84647,"longitude":-50.24193},{"ibgeCode":"5209101","name":"Goiatuba","latitude":-17.99331,"longitude":-49.65992},{"ibgeCode":"5209150","name":"Gouvelândia","latitude":-18.51038,"longitude":-50.15477},{"ibgeCode":"5209200","name":"Guapó","latitude":-16.91236,"longitude":-49.5718},{"ibgeCode":"5209291","name":"Guaraíta","latitude":-15.67335,"longitude":-50.04993},{"ibgeCode":"5209408","name":"Guarani de Goiás","latitude":-13.88864,"longitude":-46.43078},{"ibgeCode":"5209457","name":"Guarinos","latitude":-14.70114,"longitude":-49.73037},{"ibgeCode":"5209606","name":"Heitoraí","latitude":-15.74379,"longitude":-49.77945},{"ibgeCode":"5209705","name":"Hidrolândia","latitude":-17.01199,"longitude":-49.26717},{"ibgeCode":"5209804","name":"Hidrolina","latitude":-14.74027,"longitude":-49.36108},{"ibgeCode":"5209903","name":"Iaciara","latitude":-14.09006,"longitude":-46.75557},{"ibgeCode":"5209937","name":"Inaciolândia","latitude":-18.50734,"longitude":-49.91655},{"ibgeCode":"5209952","name":"Indiara","latitude":-17.18569,"longitude":-49.96887},{"ibgeCode":"5210000","name":"Inhumas","latitude":-16.30682,"longitude":-49.5165},{"ibgeCode":"5210109","name":"Ipameri","latitude":-17.50436,"longitude":-48.05353},{"ibgeCode":"5210158","name":"Ipiranga de Goiás","latitude":-15.16835,"longitude":-49.66954},{"ibgeCode":"5210208","name":"Iporá","latitude":-16.41755,"longitude":-51.17936},{"ibgeCode":"5210307","name":"Israelândia","latitude":-16.35601,"longitude":-50.88159},{"ibgeCode":"5210406","name":"Itaberaí","latitude":-16.08236,"longitude":-49.82326},{"ibgeCode":"5210562","name":"Itaguari","latitude":-15.93485,"longitude":-49.62814},{"ibgeCode":"5210604","name":"Itaguaru","latitude":-15.77267,"longitude":-49.61337},{"ibgeCode":"5210802","name":"Itajá","latitude":-19.09933,"longitude":-51.3219},{"ibgeCode":"5210901","name":"Itapaci","latitude":-14.94207,"longitude":-49.64668},{"ibgeCode":"5211008","name":"Itapirapuã","latitude":-15.70244,"longitude":-50.77193},{"ibgeCode":"5211206","name":"Itapuranga","latitude":-15.54877,"longitude":-49.94984},{"ibgeCode":"5211305","name":"Itarumã","latitude":-18.84383,"longitude":-51.33068},{"ibgeCode":"5211404","name":"Itauçu","latitude":-16.19376,"longitude":-49.60742},{"ibgeCode":"5211503","name":"Itumbiara","latitude":-18.35212,"longitude":-49.41588},{"ibgeCode":"5211602","name":"Ivolândia","latitude":-16.67816,"longitude":-51.03597},{"ibgeCode":"5211701","name":"Jandaia","latitude":-17.08862,"longitude":-50.18162},{"ibgeCode":"5211800","name":"Jaraguá","latitude":-15.70282,"longitude":-49.38653},{"ibgeCode":"5211909","name":"Jataí","latitude":-17.91055,"longitude":-51.73148},{"ibgeCode":"5212006","name":"Jaupaci","latitude":-16.18959,"longitude":-51.06057},{"ibgeCode":"5212055","name":"Jesúpolis","latitude":-15.96257,"longitude":-49.40654},{"ibgeCode":"5212105","name":"Joviânia","latitude":-17.79557,"longitude":-49.61616},{"ibgeCode":"5212204","name":"Jussara","latitude":-15.58172,"longitude":-51.33085},{"ibgeCode":"5212253","name":"Lagoa Santa","latitude":-19.18275,"longitude":-51.28367},{"ibgeCode":"5212303","name":"Leopoldo de Bulhões","latitude":-16.57066,"longitude":-48.88933},{"ibgeCode":"5212501","name":"Luziânia","latitude":-16.4807,"longitude":-47.99125},{"ibgeCode":"5212600","name":"Mairipotaba","latitude":-17.29878,"longitude":-49.45829},{"ibgeCode":"5212709","name":"Mambaí","latitude":-14.41917,"longitude":-46.06674},{"ibgeCode":"5212808","name":"Mara Rosa","latitude":-13.99654,"longitude":-49.39409},{"ibgeCode":"5212907","name":"Marzagão","latitude":-17.98661,"longitude":-48.69},{"ibgeCode":"5212956","name":"Matrinchã","latitude":-15.37683,"longitude":-50.77745},{"ibgeCode":"5213004","name":"Maurilândia","latitude":-18.03496,"longitude":-50.36436},{"ibgeCode":"5213053","name":"Mimoso de Goiás","latitude":-15.01758,"longitude":-48.30913},{"ibgeCode":"5213087","name":"Minaçu","latitude":-13.49898,"longitude":-48.34939},{"ibgeCode":"5213103","name":"Mineiros","latitude":-17.59894,"longitude":-52.75927},{"ibgeCode":"5213400","name":"Moiporá","latitude":-16.50733,"longitude":-50.77292},{"ibgeCode":"5213509","name":"Monte Alegre de Goiás","latitude":-13.29466,"longitude":-46.92363},{"ibgeCode":"5213707","name":"Montes Claros de Goiás","latitude":-15.91784,"longitude":-51.57977},{"ibgeCode":"5213756","name":"Montividiu","latitude":-17.31899,"longitude":-51.19065},{"ibgeCode":"5213772","name":"Montividiu do Norte","latitude":-13.14413,"longitude":-48.73066},{"ibgeCode":"5213806","name":"Morrinhos","latitude":-17.77456,"longitude":-49.1281},{"ibgeCode":"5213855","name":"Morro Agudo de Goiás","latitude":-15.30971,"longitude":-50.01096},{"ibgeCode":"5213905","name":"Mossâmedes","latitude":-16.16206,"longitude":-50.15696},{"ibgeCode":"5214002","name":"Mozarlândia","latitude":-14.84383,"longitude":-50.58579},{"ibgeCode":"5214051","name":"Mundo Novo","latitude":-13.79639,"longitude":-50.20244},{"ibgeCode":"5214101","name":"Mutunópolis","latitude":-13.72059,"longitude":-49.30425},{"ibgeCode":"5214408","name":"Nazário","latitude":-16.58186,"longitude":-49.85045},{"ibgeCode":"5214507","name":"Nerópolis","latitude":-16.42456,"longitude":-49.18632},{"ibgeCode":"5214606","name":"Niquelândia","latitude":-14.49825,"longitude":-48.40249},{"ibgeCode":"5214705","name":"Nova América","latitude":-15.0451,"longitude":-49.93352},{"ibgeCode":"5214804","name":"Nova Aurora","latitude":-18.10074,"longitude":-48.29619},{"ibgeCode":"5214838","name":"Nova Crixás","latitude":-14.13352,"longitude":-50.56115},{"ibgeCode":"5214861","name":"Nova Glória","latitude":-15.07871,"longitude":-49.50533},{"ibgeCode":"5214879","name":"Nova Iguaçu de Goiás","latitude":-14.31196,"longitude":-49.28855},{"ibgeCode":"5214903","name":"Nova Roma","latitude":-13.79838,"longitude":-47.0112},{"ibgeCode":"5215009","name":"Nova Veneza","latitude":-16.36044,"longitude":-49.30759},{"ibgeCode":"5215207","name":"Novo Brasil","latitude":-16.05701,"longitude":-50.6439},{"ibgeCode":"5215231","name":"Novo Gama","latitude":-16.12415,"longitude":-48.074},{"ibgeCode":"5215256","name":"Novo Planalto","latitude":-13.25127,"longitude":-49.72759},{"ibgeCode":"5215306","name":"Orizona","latitude":-17.00703,"longitude":-48.1961},{"ibgeCode":"5215405","name":"Ouro Verde de Goiás","latitude":-16.25481,"longitude":-49.21984},{"ibgeCode":"5215504","name":"Ouvidor","latitude":-18.21822,"longitude":-47.74649},{"ibgeCode":"5215603","name":"Padre Bernardo","latitude":-15.36145,"longitude":-48.30387},{"ibgeCode":"5215652","name":"Palestina de Goiás","latitude":-16.70412,"longitude":-51.44097},{"ibgeCode":"5215702","name":"Palmeiras de Goiás","latitude":-16.80695,"longitude":-49.94457},{"ibgeCode":"5215801","name":"Palmelo","latitude":-17.30123,"longitude":-48.39627},{"ibgeCode":"5215900","name":"Palminópolis","latitude":-16.82028,"longitude":-50.19446},{"ibgeCode":"5216007","name":"Panamá","latitude":-18.20391,"longitude":-49.40503},{"ibgeCode":"5216304","name":"Paranaiguara","latitude":-18.80867,"longitude":-50.62358},{"ibgeCode":"5216403","name":"Paraúna","latitude":-17.04847,"longitude":-50.63704},{"ibgeCode":"5216452","name":"Perolândia","latitude":-17.4926,"longitude":-52.22587},{"ibgeCode":"5216809","name":"Petrolina de Goiás","latitude":-16.11374,"longitude":-49.31581},{"ibgeCode":"5216908","name":"Pilar de Goiás","latitude":-14.58893,"longitude":-49.52025},{"ibgeCode":"5217104","name":"Piracanjuba","latitude":-17.33218,"longitude":-48.99334},{"ibgeCode":"5217203","name":"Piranhas","latitude":-16.41357,"longitude":-51.84287},{"ibgeCode":"5217302","name":"Pirenópolis","latitude":-15.81002,"longitude":-49.01119},{"ibgeCode":"5217401","name":"Pires do Rio","latitude":-17.27485,"longitude":-48.38888},{"ibgeCode":"5217609","name":"Planaltina","latitude":-15.28461,"longitude":-47.75016},{"ibgeCode":"5217708","name":"Pontalina","latitude":-17.53191,"longitude":-49.53791},{"ibgeCode":"5218003","name":"Porangatu","latitude":-13.29221,"longitude":-49.23022},{"ibgeCode":"5218052","name":"Porteirão","latitude":-17.90298,"longitude":-50.14497},{"ibgeCode":"5218102","name":"Portelândia","latitude":-17.35096,"longitude":-52.70525},{"ibgeCode":"5218300","name":"Posse","latitude":-14.23125,"longitude":-46.43685},{"ibgeCode":"5218391","name":"Professor Jamil","latitude":-17.27186,"longitude":-49.24416},{"ibgeCode":"5218508","name":"Quirinópolis","latitude":-18.43618,"longitude":-50.52724},{"ibgeCode":"5218607","name":"Rialma","latitude":-15.34109,"longitude":-49.53137},{"ibgeCode":"5218706","name":"Rianápolis","latitude":-15.47377,"longitude":-49.44441},{"ibgeCode":"5218789","name":"Rio Quente","latitude":-17.82952,"longitude":-48.78135},{"ibgeCode":"5218805","name":"Rio Verde","latitude":-17.73971,"longitude":-51.03782},{"ibgeCode":"5218904","name":"Rubiataba","latitude":-15.18034,"longitude":-49.87542},{"ibgeCode":"5219001","name":"Sanclerlândia","latitude":-16.28349,"longitude":-50.37417},{"ibgeCode":"5219100","name":"Santa Bárbara de Goiás","latitude":-16.59776,"longitude":-49.68061},{"ibgeCode":"5219209","name":"Santa Cruz de Goiás","latitude":-17.35954,"longitude":-48.59398},{"ibgeCode":"5219258","name":"Santa Fé de Goiás","latitude":-15.66711,"longitude":-51.17153},{"ibgeCode":"5219308","name":"Santa Helena de Goiás","latitude":-17.80295,"longitude":-50.57981},{"ibgeCode":"5219357","name":"Santa Isabel","latitude":-15.25416,"longitude":-49.38795},{"ibgeCode":"5219407","name":"Santa Rita do Araguaia","latitude":-17.2482,"longitude":-53.069},{"ibgeCode":"5219456","name":"Santa Rita do Novo Destino","latitude":-14.87611,"longitude":-49.05411},{"ibgeCode":"5219506","name":"Santa Rosa de Goiás","latitude":-16.05867,"longitude":-49.48082},{"ibgeCode":"5219605","name":"Santa Tereza de Goiás","latitude":-13.57228,"longitude":-48.98331},{"ibgeCode":"5219704","name":"Santa Terezinha de Goiás","latitude":-14.3224,"longitude":-49.67272},{"ibgeCode":"5219712","name":"Santo Antônio da Barra","latitude":-17.52707,"longitude":-50.63053},{"ibgeCode":"5219738","name":"Santo Antônio de Goiás","latitude":-16.47556,"longitude":-49.29134},{"ibgeCode":"5219753","name":"Santo Antônio do Descoberto","latitude":-16.08529,"longitude":-48.28263},{"ibgeCode":"5219803","name":"São Domingos","latitude":-13.53283,"longitude":-46.48296},{"ibgeCode":"5219902","name":"São Francisco de Goiás","latitude":-15.95216,"longitude":-49.25517},{"ibgeCode":"5220009","name":"São João d'Aliança","latitude":-14.48695,"longitude":-47.42273},{"ibgeCode":"5220058","name":"São João da Paraúna","latitude":-16.81985,"longitude":-50.37319},{"ibgeCode":"5220108","name":"São Luís de Montes Belos","latitude":-16.45551,"longitude":-50.37577},{"ibgeCode":"5220157","name":"São Luiz do Norte","latitude":-14.9161,"longitude":-49.27412},{"ibgeCode":"5220207","name":"São Miguel do Araguaia","latitude":-13.1447,"longitude":-50.24898},{"ibgeCode":"5220264","name":"São Miguel do Passa Quatro","latitude":-16.98919,"longitude":-48.66915},{"ibgeCode":"5220280","name":"São Patrício","latitude":-15.36724,"longitude":-49.82869},{"ibgeCode":"5220405","name":"São Simão","latitude":-19.01023,"longitude":-50.5896},{"ibgeCode":"5220454","name":"Senador Canedo","latitude":-16.70366,"longitude":-49.10625},{"ibgeCode":"5220504","name":"Serranópolis","latitude":-18.22433,"longitude":-52.21311},{"ibgeCode":"5220603","name":"Silvânia","latitude":-16.60644,"longitude":-48.55708},{"ibgeCode":"5220686","name":"Simolândia","latitude":-14.43321,"longitude":-46.58466},{"ibgeCode":"5220702","name":"Sítio d'Abadia","latitude":-14.73558,"longitude":-46.23848},{"ibgeCode":"5221007","name":"Taquaral de Goiás","latitude":-16.04158,"longitude":-49.59616},{"ibgeCode":"5221080","name":"Teresina de Goiás","latitude":-13.68091,"longitude":-47.23818},{"ibgeCode":"5221197","name":"Terezópolis de Goiás","latitude":-16.44523,"longitude":-49.0756},{"ibgeCode":"5221304","name":"Três Ranchos","latitude":-18.34157,"longitude":-47.78023},{"ibgeCode":"5221403","name":"Trindade","latitude":-16.64239,"longitude":-49.54559},{"ibgeCode":"5221452","name":"Trombas","latitude":-13.41903,"longitude":-48.7543},{"ibgeCode":"5221502","name":"Turvânia","latitude":-16.57552,"longitude":-50.13056},{"ibgeCode":"5221551","name":"Turvelândia","latitude":-17.75487,"longitude":-50.31222},{"ibgeCode":"5221577","name":"Uirapuru","latitude":-14.14887,"longitude":-49.96579},{"ibgeCode":"5221601","name":"Uruaçu","latitude":-14.41853,"longitude":-49.09114},{"ibgeCode":"5221700","name":"Uruana","latitude":-15.57311,"longitude":-49.64115},{"ibgeCode":"5221809","name":"Urutaí","latitude":-17.43423,"longitude":-48.19621},{"ibgeCode":"5221858","name":"Valparaíso de Goiás","latitude":-16.0834,"longitude":-47.98914},{"ibgeCode":"5221908","name":"Varjão","latitude":-17.07911,"longitude":-49.61215},{"ibgeCode":"5222005","name":"Vianópolis","latitude":-16.81257,"longitude":-48.44139},{"ibgeCode":"5222054","name":"Vicentinópolis","latitude":-17.7218,"longitude":-49.87068},{"ibgeCode":"5222203","name":"Vila Boa","latitude":-14.99468,"longitude":-47.06173},{"ibgeCode":"5222302","name":"Vila Propício","latitude":-15.26977,"longitude":-48.81419}]}
