{"meta":{"source":"IBGE — API de Localidades e API de Malhas","sourceUrl":"https://servicodados.ibge.gov.br/api/docs/","coordinateMethod":"Centroide do maior polígono municipal na malha de qualidade mínima","generatedAt":"2026-07-21T06:10:55.915Z","uf":"MA","total":217},"municipalities":[{"ibgeCode":"2100055","name":"Açailândia","latitude":-4.78591,"longitude":-47.33357},{"ibgeCode":"2100105","name":"Afonso Cunha","latitude":-4.21494,"longitude":-43.29891},{"ibgeCode":"2100154","name":"Água Doce do Maranhão","latitude":-2.94705,"longitude":-42.1658},{"ibgeCode":"2100204","name":"Alcântara","latitude":-2.38029,"longitude":-44.54005},{"ibgeCode":"2100303","name":"Aldeias Altas","latitude":-4.50275,"longitude":-43.3829},{"ibgeCode":"2100402","name":"Altamira do Maranhão","latitude":-4.16623,"longitude":-45.50286},{"ibgeCode":"2100436","name":"Alto Alegre do Maranhão","latitude":-4.21144,"longitude":-44.39639},{"ibgeCode":"2100477","name":"Alto Alegre do Pindaré","latitude":-3.86994,"longitude":-46.00084},{"ibgeCode":"2100501","name":"Alto Parnaíba","latitude":-9.50771,"longitude":-46.21206},{"ibgeCode":"2100550","name":"Amapá do Maranhão","latitude":-1.67517,"longitude":-45.94664},{"ibgeCode":"2100600","name":"Amarante do Maranhão","latitude":-5.27852,"longitude":-46.58224},{"ibgeCode":"2100709","name":"Anajatuba","latitude":-3.25563,"longitude":-44.59863},{"ibgeCode":"2100808","name":"Anapurus","latitude":-3.54346,"longitude":-43.10911},{"ibgeCode":"2100832","name":"Apicum-Açu","latitude":-1.54663,"longitude":-45.08185},{"ibgeCode":"2100873","name":"Araguanã","latitude":-3.0785,"longitude":-45.78686},{"ibgeCode":"2100907","name":"Araioses","latitude":-2.97271,"longitude":-42.01687},{"ibgeCode":"2100956","name":"Arame","latitude":-5.02838,"longitude":-45.94586},{"ibgeCode":"2101004","name":"Arari","latitude":-3.53642,"longitude":-44.72678},{"ibgeCode":"2101103","name":"Axixá","latitude":-2.83895,"longitude":-44.09711},{"ibgeCode":"2101202","name":"Bacabal","latitude":-4.17073,"longitude":-44.76204},{"ibgeCode":"2101251","name":"Bacabeira","latitude":-2.93652,"longitude":-44.35756},{"ibgeCode":"2101301","name":"Bacuri","latitude":-1.68192,"longitude":-45.16366},{"ibgeCode":"2101350","name":"Bacurituba","latitude":-2.69947,"longitude":-44.69443},{"ibgeCode":"2101400","name":"Balsas","latitude":-8.23669,"longitude":-46.34246},{"ibgeCode":"2101509","name":"Barão de Grajaú","latitude":-6.59302,"longitude":-43.18804},{"ibgeCode":"2101608","name":"Barra do Corda","latitude":-5.50509,"longitude":-45.18298},{"ibgeCode":"2101707","name":"Barreirinhas","latitude":-2.83923,"longitude":-42.90983},{"ibgeCode":"2101772","name":"Bela Vista do Maranhão","latitude":-3.75628,"longitude":-45.25731},{"ibgeCode":"2101731","name":"Belágua","latitude":-3.10138,"longitude":-43.46106},{"ibgeCode":"2101806","name":"Benedito Leite","latitude":-7.11997,"longitude":-44.56814},{"ibgeCode":"2101905","name":"Bequimão","latitude":-2.42937,"longitude":-44.78493},{"ibgeCode":"2101939","name":"Bernardo do Mearim","latitude":-4.67856,"longitude":-44.69013},{"ibgeCode":"2101970","name":"Boa Vista do Gurupi","latitude":-1.76374,"longitude":-46.17986},{"ibgeCode":"2102002","name":"Bom Jardim","latitude":-3.90035,"longitude":-46.41767},{"ibgeCode":"2102036","name":"Bom Jesus das Selvas","latitude":-4.60218,"longitude":-46.68973},{"ibgeCode":"2102077","name":"Bom Lugar","latitude":-4.34631,"longitude":-45.02117},{"ibgeCode":"2102101","name":"Brejo","latitude":-3.68752,"longitude":-42.82839},{"ibgeCode":"2102150","name":"Brejo de Areia","latitude":-4.3659,"longitude":-45.65125},{"ibgeCode":"2102200","name":"Buriti","latitude":-3.90079,"longitude":-43.00224},{"ibgeCode":"2102309","name":"Buriti Bravo","latitude":-5.78988,"longitude":-43.83041},{"ibgeCode":"2102325","name":"Buriticupu","latitude":-4.49283,"longitude":-46.34318},{"ibgeCode":"2102358","name":"Buritirana","latitude":-5.51889,"longitude":-47.06467},{"ibgeCode":"2102374","name":"Cachoeira Grande","latitude":-3.12029,"longitude":-43.93181},{"ibgeCode":"2102408","name":"Cajapió","latitude":-2.88903,"longitude":-44.53999},{"ibgeCode":"2102507","name":"Cajari","latitude":-3.39199,"longitude":-45.05358},{"ibgeCode":"2102556","name":"Campestre do Maranhão","latitude":-6.17529,"longitude":-47.265},{"ibgeCode":"2102606","name":"Cândido Mendes","latitude":-1.62754,"longitude":-45.68046},{"ibgeCode":"2102705","name":"Cantanhede","latitude":-3.62143,"longitude":-44.26487},{"ibgeCode":"2102754","name":"Capinzal do Norte","latitude":-4.6823,"longitude":-44.30673},{"ibgeCode":"2102804","name":"Carolina","latitude":-7.37535,"longitude":-47.21204},{"ibgeCode":"2102903","name":"Carutapera","latitude":-1.35243,"longitude":-46.02881},{"ibgeCode":"2103000","name":"Caxias","latitude":-4.86656,"longitude":-43.29976},{"ibgeCode":"2103109","name":"Cedral","latitude":-1.97945,"longitude":-44.59659},{"ibgeCode":"2103125","name":"Central do Maranhão","latitude":-2.25443,"longitude":-44.85946},{"ibgeCode":"2103158","name":"Centro do Guilherme","latitude":-2.42729,"longitude":-46.11719},{"ibgeCode":"2103174","name":"Centro Novo do Maranhão","latitude":-3.0738,"longitude":-46.53381},{"ibgeCode":"2103208","name":"Chapadinha","latitude":-3.84865,"longitude":-43.45366},{"ibgeCode":"2103257","name":"Cidelândia","latitude":-5.05785,"longitude":-47.82942},{"ibgeCode":"2103307","name":"Codó","latitude":-4.60754,"longitude":-43.88594},{"ibgeCode":"2103406","name":"Coelho Neto","latitude":-4.248,"longitude":-43.11279},{"ibgeCode":"2103505","name":"Colinas","latitude":-6.05609,"longitude":-44.18264},{"ibgeCode":"2103554","name":"Conceição do Lago-Açu","latitude":-3.79836,"longitude":-44.8382},{"ibgeCode":"2103604","name":"Coroatá","latitude":-4.10228,"longitude":-44.14515},{"ibgeCode":"2103703","name":"Cururupu","latitude":-1.77509,"longitude":-44.788},{"ibgeCode":"2103752","name":"Davinópolis","latitude":-5.59959,"longitude":-47.30187},{"ibgeCode":"2103802","name":"Dom Pedro","latitude":-5.02192,"longitude":-44.39739},{"ibgeCode":"2103901","name":"Duque Bacelar","latitude":-4.10044,"longitude":-43.00827},{"ibgeCode":"2104008","name":"Esperantinópolis","latitude":-4.89919,"longitude":-44.89173},{"ibgeCode":"2104057","name":"Estreito","latitude":-6.78185,"longitude":-47.20247},{"ibgeCode":"2104073","name":"Feira Nova do Maranhão","latitude":-7.01688,"longitude":-46.6269},{"ibgeCode":"2104081","name":"Fernando Falcão","latitude":-6.17432,"longitude":-45.30643},{"ibgeCode":"2104099","name":"Formosa da Serra Negra","latitude":-6.51451,"longitude":-46.18664},{"ibgeCode":"2104107","name":"Fortaleza dos Nogueiras","latitude":-6.94309,"longitude":-46.08259},{"ibgeCode":"2104206","name":"Fortuna","latitude":-5.63523,"longitude":-44.01462},{"ibgeCode":"2104305","name":"Godofredo Viana","latitude":-1.37734,"longitude":-45.7674},{"ibgeCode":"2104404","name":"Gonçalves Dias","latitude":-5.15211,"longitude":-44.17129},{"ibgeCode":"2104503","name":"Governador Archer","latitude":-4.99956,"longitude":-44.22238},{"ibgeCode":"2104552","name":"Governador Edison Lobão","latitude":-5.7193,"longitude":-47.3253},{"ibgeCode":"2104602","name":"Governador Eugênio Barros","latitude":-5.36653,"longitude":-44.09407},{"ibgeCode":"2104628","name":"Governador Luiz Rocha","latitude":-5.52899,"longitude":-44.09031},{"ibgeCode":"2104651","name":"Governador Newton Bello","latitude":-3.41941,"longitude":-45.92613},{"ibgeCode":"2104677","name":"Governador Nunes Freire","latitude":-2.06265,"longitude":-45.81903},{"ibgeCode":"2104701","name":"Graça Aranha","latitude":-5.41362,"longitude":-44.31786},{"ibgeCode":"2104800","name":"Grajaú","latitude":-5.84062,"longitude":-46.01461},{"ibgeCode":"2104909","name":"Guimarães","latitude":-2.14845,"longitude":-44.6659},{"ibgeCode":"2105005","name":"Humberto de Campos","latitude":-2.72415,"longitude":-43.5629},{"ibgeCode":"2105104","name":"Icatu","latitude":-2.65156,"longitude":-43.86133},{"ibgeCode":"2105153","name":"Igarapé do Meio","latitude":-3.65583,"longitude":-45.12283},{"ibgeCode":"2105203","name":"Igarapé Grande","latitude":-4.59185,"longitude":-44.82625},{"ibgeCode":"2105302","name":"Imperatriz","latitude":-5.34004,"longitude":-47.57527},{"ibgeCode":"2105351","name":"Itaipava do Grajaú","latitude":-5.18501,"longitude":-45.67565},{"ibgeCode":"2105401","name":"Itapecuru Mirim","latitude":-3.38942,"longitude":-44.27702},{"ibgeCode":"2105427","name":"Itinga do Maranhão","latitude":-4.27233,"longitude":-47.26099},{"ibgeCode":"2105450","name":"Jatobá","latitude":-5.85244,"longitude":-44.29072},{"ibgeCode":"2105476","name":"Jenipapo dos Vieiras","latitude":-5.39281,"longitude":-45.57535},{"ibgeCode":"2105500","name":"João Lisboa","latitude":-5.22882,"longitude":-47.12557},{"ibgeCode":"2105609","name":"Joselândia","latitude":-5.01634,"longitude":-44.75529},{"ibgeCode":"2105658","name":"Junco do Maranhão","latitude":-1.91857,"longitude":-46.11757},{"ibgeCode":"2105708","name":"Lago da Pedra","latitude":-4.73803,"longitude":-45.20628},{"ibgeCode":"2105807","name":"Lago do Junco","latitude":-4.52178,"longitude":-44.9756},{"ibgeCode":"2105948","name":"Lago dos Rodrigues","latitude":-4.59109,"longitude":-44.93292},{"ibgeCode":"2105906","name":"Lago Verde","latitude":-3.99132,"longitude":-44.88383},{"ibgeCode":"2105922","name":"Lagoa do Mato","latitude":-6.03044,"longitude":-43.49473},{"ibgeCode":"2105963","name":"Lagoa Grande do Maranhão","latitude":-4.92858,"longitude":-45.40463},{"ibgeCode":"2105989","name":"Lajeado Novo","latitude":-6.10311,"longitude":-46.93141},{"ibgeCode":"2106003","name":"Lima Campos","latitude":-4.55683,"longitude":-44.46484},{"ibgeCode":"2106102","name":"Loreto","latitude":-7.21975,"longitude":-45.21981},{"ibgeCode":"2106201","name":"Luís Domingues","latitude":-1.39688,"longitude":-45.89389},{"ibgeCode":"2106300","name":"Magalhães de Almeida","latitude":-3.29924,"longitude":-42.18328},{"ibgeCode":"2106326","name":"Maracaçumé","latitude":-1.98402,"longitude":-45.99344},{"ibgeCode":"2106359","name":"Marajá do Sena","latitude":-4.70443,"longitude":-45.62995},{"ibgeCode":"2106375","name":"Maranhãozinho","latitude":-2.41161,"longitude":-45.94643},{"ibgeCode":"2106409","name":"Mata Roma","latitude":-3.62625,"longitude":-43.22576},{"ibgeCode":"2106508","name":"Matinha","latitude":-3.07309,"longitude":-45.00403},{"ibgeCode":"2106607","name":"Matões","latitude":-5.38861,"longitude":-43.3066},{"ibgeCode":"2106631","name":"Matões do Norte","latitude":-3.75735,"longitude":-44.47761},{"ibgeCode":"2106672","name":"Milagres do Maranhão","latitude":-3.49628,"longitude":-42.79673},{"ibgeCode":"2106706","name":"Mirador","latitude":-6.45378,"longitude":-44.95097},{"ibgeCode":"2106755","name":"Miranda do Norte","latitude":-3.53241,"longitude":-44.52846},{"ibgeCode":"2106805","name":"Mirinzal","latitude":-2.0586,"longitude":-44.84405},{"ibgeCode":"2106904","name":"Monção","latitude":-3.49182,"longitude":-45.3215},{"ibgeCode":"2107001","name":"Montes Altos","latitude":-5.85694,"longitude":-47.04186},{"ibgeCode":"2107100","name":"Morros","latitude":-2.97383,"longitude":-43.77679},{"ibgeCode":"2107209","name":"Nina Rodrigues","latitude":-3.42694,"longitude":-43.81284},{"ibgeCode":"2107258","name":"Nova Colinas","latitude":-7.14339,"longitude":-46.26405},{"ibgeCode":"2107308","name":"Nova Iorque","latitude":-6.74903,"longitude":-44.03936},{"ibgeCode":"2107357","name":"Nova Olinda do Maranhão","latitude":-2.89561,"longitude":-45.95427},{"ibgeCode":"2107407","name":"Olho d'Água das Cunhãs","latitude":-4.09423,"longitude":-45.12098},{"ibgeCode":"2107456","name":"Olinda Nova do Maranhão","latitude":-2.97792,"longitude":-45.00551},{"ibgeCode":"2107506","name":"Paço do Lumiar","latitude":-2.50279,"longitude":-44.12402},{"ibgeCode":"2107605","name":"Palmeirândia","latitude":-2.69064,"longitude":-45.02161},{"ibgeCode":"2107704","name":"Paraibano","latitude":-6.40346,"longitude":-43.92412},{"ibgeCode":"2107803","name":"Parnarama","latitude":-5.63765,"longitude":-43.46246},{"ibgeCode":"2107902","name":"Passagem Franca","latitude":-6.15279,"longitude":-43.75687},{"ibgeCode":"2108009","name":"Pastos Bons","latitude":-6.63277,"longitude":-44.18157},{"ibgeCode":"2108058","name":"Paulino Neves","latitude":-2.85603,"longitude":-42.61106},{"ibgeCode":"2108108","name":"Paulo Ramos","latitude":-4.52208,"longitude":-45.39575},{"ibgeCode":"2108207","name":"Pedreiras","latitude":-4.61956,"longitude":-44.58146},{"ibgeCode":"2108256","name":"Pedro do Rosário","latitude":-2.98814,"longitude":-45.43165},{"ibgeCode":"2108306","name":"Penalva","latitude":-3.25155,"longitude":-45.29818},{"ibgeCode":"2108405","name":"Peri Mirim","latitude":-2.56966,"longitude":-44.89497},{"ibgeCode":"2108454","name":"Peritoró","latitude":-4.41965,"longitude":-44.28163},{"ibgeCode":"2108504","name":"Pindaré-Mirim","latitude":-3.70064,"longitude":-45.45039},{"ibgeCode":"2108603","name":"Pinheiro","latitude":-2.49774,"longitude":-45.12607},{"ibgeCode":"2108702","name":"Pio XII","latitude":-3.85209,"longitude":-45.0934},{"ibgeCode":"2108801","name":"Pirapemas","latitude":-3.78272,"longitude":-44.17235},{"ibgeCode":"2108900","name":"Poção de Pedras","latitude":-4.78793,"longitude":-44.91134},{"ibgeCode":"2109007","name":"Porto Franco","latitude":-6.36813,"longitude":-47.18},{"ibgeCode":"2109056","name":"Porto Rico do Maranhão","latitude":-1.88667,"longitude":-44.63418},{"ibgeCode":"2109106","name":"Presidente Dutra","latitude":-5.28137,"longitude":-44.45483},{"ibgeCode":"2109205","name":"Presidente Juscelino","latitude":-3.09183,"longitude":-44.07809},{"ibgeCode":"2109239","name":"Presidente Médici","latitude":-2.31974,"longitude":-45.773},{"ibgeCode":"2109270","name":"Presidente Sarney","latitude":-2.58494,"longitude":-45.36165},{"ibgeCode":"2109304","name":"Presidente Vargas","latitude":-3.34386,"longitude":-43.95471},{"ibgeCode":"2109403","name":"Primeira Cruz","latitude":-2.7096,"longitude":-43.36263},{"ibgeCode":"2109452","name":"Raposa","latitude":-2.43617,"longitude":-44.08592},{"ibgeCode":"2109502","name":"Riachão","latitude":-7.59617,"longitude":-46.65969},{"ibgeCode":"2109551","name":"Ribamar Fiquene","latitude":-5.95776,"longitude":-47.31669},{"ibgeCode":"2109601","name":"Rosário","latitude":-2.95502,"longitude":-44.20192},{"ibgeCode":"2109700","name":"Sambaíba","latitude":-7.43284,"longitude":-45.557},{"ibgeCode":"2109759","name":"Santa Filomena do Maranhão","latitude":-5.51783,"longitude":-44.61585},{"ibgeCode":"2109809","name":"Santa Helena","latitude":-2.41741,"longitude":-45.36993},{"ibgeCode":"2109908","name":"Santa Inês","latitude":-3.87012,"longitude":-45.43279},{"ibgeCode":"2110005","name":"Santa Luzia","latitude":-4.27094,"longitude":-45.93232},{"ibgeCode":"2110039","name":"Santa Luzia do Paruá","latitude":-2.54008,"longitude":-45.77286},{"ibgeCode":"2110104","name":"Santa Quitéria do Maranhão","latitude":-3.34529,"longitude":-42.88043},{"ibgeCode":"2110203","name":"Santa Rita","latitude":-3.15956,"longitude":-44.33054},{"ibgeCode":"2110237","name":"Santana do Maranhão","latitude":-3.19731,"longitude":-42.61467},{"ibgeCode":"2110278","name":"Santo Amaro do Maranhão","latitude":-2.62323,"longitude":-43.18401},{"ibgeCode":"2110302","name":"Santo Antônio dos Lopes","latitude":-4.82652,"longitude":-44.48172},{"ibgeCode":"2110401","name":"São Benedito do Rio Preto","latitude":-3.37563,"longitude":-43.61736},{"ibgeCode":"2110500","name":"São Bento","latitude":-2.79698,"longitude":-44.99926},{"ibgeCode":"2110609","name":"São Bernardo","latitude":-3.31141,"longitude":-42.40585},{"ibgeCode":"2110658","name":"São Domingos do Azeitão","latitude":-6.83347,"longitude":-44.61785},{"ibgeCode":"2110708","name":"São Domingos do Maranhão","latitude":-5.63852,"longitude":-44.33658},{"ibgeCode":"2110807","name":"São Félix de Balsas","latitude":-7.09173,"longitude":-44.88367},{"ibgeCode":"2110856","name":"São Francisco do Brejão","latitude":-5.15888,"longitude":-47.35273},{"ibgeCode":"2110906","name":"São Francisco do Maranhão","latitude":-6.20927,"longitude":-43.11316},{"ibgeCode":"2111003","name":"São João Batista","latitude":-3.00486,"longitude":-44.76411},{"ibgeCode":"2111029","name":"São João do Carú","latitude":-3.51141,"longitude":-46.38067},{"ibgeCode":"2111052","name":"São João do Paraíso","latitude":-6.46383,"longitude":-46.9004},{"ibgeCode":"2111078","name":"São João do Soter","latitude":-5.04091,"longitude":-43.76707},{"ibgeCode":"2111102","name":"São João dos Patos","latitude":-6.5591,"longitude":-43.63823},{"ibgeCode":"2111201","name":"São José de Ribamar","latitude":-2.5777,"longitude":-44.13061},{"ibgeCode":"2111250","name":"São José dos Basílios","latitude":-5.04167,"longitude":-44.5683},{"ibgeCode":"2111300","name":"São Luís","latitude":-2.63125,"longitude":-44.28077},{"ibgeCode":"2111409","name":"São Luís Gonzaga do Maranhão","latitude":-4.37819,"longitude":-44.62376},{"ibgeCode":"2111508","name":"São Mateus do Maranhão","latitude":-3.99072,"longitude":-44.52716},{"ibgeCode":"2111532","name":"São Pedro da Água Branca","latitude":-5.13247,"longitude":-48.36995},{"ibgeCode":"2111573","name":"São Pedro dos Crentes","latitude":-6.81779,"longitude":-46.70981},{"ibgeCode":"2111607","name":"São Raimundo das Mangabeiras","latitude":-7.0136,"longitude":-45.69115},{"ibgeCode":"2111631","name":"São Raimundo do Doca Bezerra","latitude":-5.08852,"longitude":-45.14377},{"ibgeCode":"2111672","name":"São Roberto","latitude":-5.01705,"longitude":-45.03048},{"ibgeCode":"2111706","name":"São Vicente Ferrer","latitude":-2.87746,"longitude":-44.94371},{"ibgeCode":"2111722","name":"Satubinha","latitude":-3.94008,"longitude":-45.25998},{"ibgeCode":"2111748","name":"Senador Alexandre Costa","latitude":-5.26158,"longitude":-43.98458},{"ibgeCode":"2111763","name":"Senador La Rocque","latitude":-5.38916,"longitude":-47.14633},{"ibgeCode":"2111789","name":"Serrano do Maranhão","latitude":-1.87389,"longitude":-45.01886},{"ibgeCode":"2111805","name":"Sítio Novo","latitude":-6.22774,"longitude":-46.59603},{"ibgeCode":"2111904","name":"Sucupira do Norte","latitude":-6.5098,"longitude":-44.33908},{"ibgeCode":"2111953","name":"Sucupira do Riachão","latitude":-6.4073,"longitude":-43.48497},{"ibgeCode":"2112001","name":"Tasso Fragoso","latitude":-8.3315,"longitude":-45.88578},{"ibgeCode":"2112100","name":"Timbiras","latitude":-4.15258,"longitude":-43.81335},{"ibgeCode":"2112209","name":"Timon","latitude":-5.18557,"longitude":-42.98053},{"ibgeCode":"2112233","name":"Trizidela do Vale","latitude":-4.53794,"longitude":-44.68125},{"ibgeCode":"2112274","name":"Tufilândia","latitude":-3.75961,"longitude":-45.58083},{"ibgeCode":"2112308","name":"Tuntum","latitude":-5.61094,"longitude":-44.73066},{"ibgeCode":"2112407","name":"Turiaçu","latitude":-1.76535,"longitude":-45.46279},{"ibgeCode":"2112456","name":"Turilândia","latitude":-2.16023,"longitude":-45.43808},{"ibgeCode":"2112506","name":"Tutóia","latitude":-2.92169,"longitude":-42.3887},{"ibgeCode":"2112605","name":"Urbano Santos","latitude":-3.25938,"longitude":-43.28021},{"ibgeCode":"2112704","name":"Vargem Grande","latitude":-3.71013,"longitude":-43.85469},{"ibgeCode":"2112803","name":"Viana","latitude":-3.15647,"longitude":-45.00132},{"ibgeCode":"2112852","name":"Vila Nova dos Martírios","latitude":-5.07543,"longitude":-48.08101},{"ibgeCode":"2112902","name":"Vitória do Mearim","latitude":-3.56782,"longitude":-44.92246},{"ibgeCode":"2113009","name":"Vitorino Freire","latitude":-4.24571,"longitude":-45.31242},{"ibgeCode":"2114007","name":"Zé Doca","latitude":-3.26018,"longitude":-45.91284}]}
