{"meta":{"source":"IBGE — API de Localidades e API de Malhas","sourceUrl":"https://servicodados.ibge.gov.br/api/docs/","coordinateMethod":"Centroide do maior polígono municipal na malha de qualidade mínima","generatedAt":"2026-07-21T06:10:55.918Z","uf":"MS","total":79},"municipalities":[{"ibgeCode":"5000203","name":"Água Clara","latitude":-19.9634,"longitude":-52.92639},{"ibgeCode":"5000252","name":"Alcinópolis","latitude":-18.20815,"longitude":-53.74939},{"ibgeCode":"5000609","name":"Amambai","latitude":-23.15838,"longitude":-54.9665},{"ibgeCode":"5000708","name":"Anastácio","latitude":-20.69715,"longitude":-55.77172},{"ibgeCode":"5000807","name":"Anaurilândia","latitude":-22.11132,"longitude":-52.80506},{"ibgeCode":"5000856","name":"Angélica","latitude":-22.06098,"longitude":-53.86578},{"ibgeCode":"5000906","name":"Antônio João","latitude":-22.20606,"longitude":-55.97139},{"ibgeCode":"5001003","name":"Aparecida do Taboado","latitude":-20.07555,"longitude":-51.29109},{"ibgeCode":"5001102","name":"Aquidauana","latitude":-19.74588,"longitude":-55.87655},{"ibgeCode":"5001243","name":"Aral Moreira","latitude":-22.90635,"longitude":-55.44952},{"ibgeCode":"5001508","name":"Bandeirantes","latitude":-19.8041,"longitude":-54.30582},{"ibgeCode":"5001904","name":"Bataguassu","latitude":-21.80518,"longitude":-52.57279},{"ibgeCode":"5002001","name":"Batayporã","latitude":-22.39084,"longitude":-53.17677},{"ibgeCode":"5002100","name":"Bela Vista","latitude":-21.93596,"longitude":-56.53938},{"ibgeCode":"5002159","name":"Bodoquena","latitude":-20.54871,"longitude":-56.7009},{"ibgeCode":"5002209","name":"Bonito","latitude":-21.0338,"longitude":-56.48228},{"ibgeCode":"5002308","name":"Brasilândia","latitude":-21.07682,"longitude":-52.43293},{"ibgeCode":"5002407","name":"Caarapó","latitude":-22.58697,"longitude":-54.80415},{"ibgeCode":"5002605","name":"Camapuã","latitude":-19.34214,"longitude":-53.86913},{"ibgeCode":"5002704","name":"Campo Grande","latitude":-20.91363,"longitude":-54.24862},{"ibgeCode":"5002803","name":"Caracol","latitude":-21.94108,"longitude":-57.09035},{"ibgeCode":"5002902","name":"Cassilândia","latitude":-19.0954,"longitude":-52.18036},{"ibgeCode":"5002951","name":"Chapadão do Sul","latitude":-18.99409,"longitude":-52.69848},{"ibgeCode":"5003108","name":"Corguinho","latitude":-19.80717,"longitude":-55.05595},{"ibgeCode":"5003157","name":"Coronel Sapucaia","latitude":-23.34696,"longitude":-55.3836},{"ibgeCode":"5003207","name":"Corumbá","latitude":-18.72425,"longitude":-56.72678},{"ibgeCode":"5003256","name":"Costa Rica","latitude":-18.51624,"longitude":-53.20291},{"ibgeCode":"5003306","name":"Coxim","latitude":-18.28153,"longitude":-54.67315},{"ibgeCode":"5003454","name":"Deodápolis","latitude":-22.15561,"longitude":-54.15113},{"ibgeCode":"5003488","name":"Dois Irmãos do Buriti","latitude":-20.60075,"longitude":-55.36321},{"ibgeCode":"5003504","name":"Douradina","latitude":-22.01377,"longitude":-54.58771},{"ibgeCode":"5003702","name":"Dourados","latitude":-22.14359,"longitude":-54.83755},{"ibgeCode":"5003751","name":"Eldorado","latitude":-23.73943,"longitude":-54.22452},{"ibgeCode":"5003801","name":"Fátima do Sul","latitude":-22.3371,"longitude":-54.43965},{"ibgeCode":"5003900","name":"Figueirão","latitude":-18.74476,"longitude":-53.86102},{"ibgeCode":"5004007","name":"Glória de Dourados","latitude":-22.42672,"longitude":-54.19234},{"ibgeCode":"5004106","name":"Guia Lopes da Laguna","latitude":-21.53738,"longitude":-55.99897},{"ibgeCode":"5004304","name":"Iguatemi","latitude":-23.43394,"longitude":-54.53706},{"ibgeCode":"5004403","name":"Inocência","latitude":-19.65756,"longitude":-52.02102},{"ibgeCode":"5004502","name":"Itaporã","latitude":-22.00506,"longitude":-54.87427},{"ibgeCode":"5004601","name":"Itaquiraí","latitude":-23.34196,"longitude":-54.11772},{"ibgeCode":"5004700","name":"Ivinhema","latitude":-22.37115,"longitude":-53.79871},{"ibgeCode":"5004809","name":"Japorã","latitude":-23.80968,"longitude":-54.53968},{"ibgeCode":"5004908","name":"Jaraguari","latitude":-20.22687,"longitude":-54.34816},{"ibgeCode":"5005004","name":"Jardim","latitude":-21.58212,"longitude":-56.35377},{"ibgeCode":"5005103","name":"Jateí","latitude":-22.70646,"longitude":-53.95802},{"ibgeCode":"5005152","name":"Juti","latitude":-22.77604,"longitude":-54.49018},{"ibgeCode":"5005202","name":"Ladário","latitude":-19.10199,"longitude":-57.56976},{"ibgeCode":"5005251","name":"Laguna Carapã","latitude":-22.6798,"longitude":-55.13012},{"ibgeCode":"5005400","name":"Maracaju","latitude":-21.54335,"longitude":-55.39659},{"ibgeCode":"5005608","name":"Miranda","latitude":-20.12303,"longitude":-56.59404},{"ibgeCode":"5005681","name":"Mundo Novo","latitude":-23.94348,"longitude":-54.27592},{"ibgeCode":"5005707","name":"Naviraí","latitude":-23.02189,"longitude":-54.02602},{"ibgeCode":"5005806","name":"Nioaque","latitude":-21.10157,"longitude":-55.90066},{"ibgeCode":"5006002","name":"Nova Alvorada do Sul","latitude":-21.49081,"longitude":-54.21727},{"ibgeCode":"5006200","name":"Nova Andradina","latitude":-21.92489,"longitude":-53.42199},{"ibgeCode":"5006259","name":"Novo Horizonte do Sul","latitude":-22.6032,"longitude":-53.78276},{"ibgeCode":"5006275","name":"Paraíso das Águas","latitude":-19.22742,"longitude":-53.13088},{"ibgeCode":"5006309","name":"Paranaíba","latitude":-19.52772,"longitude":-51.39486},{"ibgeCode":"5006358","name":"Paranhos","latitude":-23.71173,"longitude":-55.3567},{"ibgeCode":"5006408","name":"Pedro Gomes","latitude":-17.91327,"longitude":-54.33929},{"ibgeCode":"5006606","name":"Ponta Porã","latitude":-22.2021,"longitude":-55.58282},{"ibgeCode":"5006903","name":"Porto Murtinho","latitude":-21.22606,"longitude":-57.38399},{"ibgeCode":"5007109","name":"Ribas do Rio Pardo","latitude":-20.59638,"longitude":-53.54414},{"ibgeCode":"5007208","name":"Rio Brilhante","latitude":-21.69528,"longitude":-54.5611},{"ibgeCode":"5007307","name":"Rio Negro","latitude":-19.44737,"longitude":-54.96179},{"ibgeCode":"5007406","name":"Rio Verde de Mato Grosso","latitude":-18.81408,"longitude":-55.04343},{"ibgeCode":"5007505","name":"Rochedo","latitude":-19.97923,"longitude":-54.73584},{"ibgeCode":"5007554","name":"Santa Rita do Pardo","latitude":-21.31854,"longitude":-52.77448},{"ibgeCode":"5007695","name":"São Gabriel do Oeste","latitude":-19.16663,"longitude":-54.48156},{"ibgeCode":"5007802","name":"Selvíria","latitude":-20.28261,"longitude":-51.75849},{"ibgeCode":"5007703","name":"Sete Quedas","latitude":-23.88127,"longitude":-55.03008},{"ibgeCode":"5007901","name":"Sidrolândia","latitude":-21.09352,"longitude":-54.9425},{"ibgeCode":"5007935","name":"Sonora","latitude":-17.64889,"longitude":-54.43429},{"ibgeCode":"5007950","name":"Tacuru","latitude":-23.65073,"longitude":-54.98927},{"ibgeCode":"5007976","name":"Taquarussu","latitude":-22.66871,"longitude":-53.43056},{"ibgeCode":"5008008","name":"Terenos","latitude":-20.447,"longitude":-55.0238},{"ibgeCode":"5008305","name":"Três Lagoas","latitude":-20.43892,"longitude":-52.21078},{"ibgeCode":"5008404","name":"Vicentina","latitude":-22.46663,"longitude":-54.42575}]}
