{"meta":{"source":"IBGE — API de Localidades e API de Malhas","sourceUrl":"https://servicodados.ibge.gov.br/api/docs/","coordinateMethod":"Centroide do maior polígono municipal na malha de qualidade mínima","generatedAt":"2026-07-21T06:10:55.932Z","uf":"PR","total":399},"municipalities":[{"ibgeCode":"4100103","name":"Abatiá","latitude":-23.30652,"longitude":-50.30889},{"ibgeCode":"4100202","name":"Adrianópolis","latitude":-24.78459,"longitude":-48.82025},{"ibgeCode":"4100301","name":"Agudos do Sul","latitude":-26.0274,"longitude":-49.3124},{"ibgeCode":"4100400","name":"Almirante Tamandaré","latitude":-25.29711,"longitude":-49.32439},{"ibgeCode":"4100459","name":"Altamira do Paraná","latitude":-24.81388,"longitude":-52.69158},{"ibgeCode":"4128625","name":"Alto Paraíso","latitude":-23.53743,"longitude":-53.82336},{"ibgeCode":"4100608","name":"Alto Paraná","latitude":-23.07416,"longitude":-52.32439},{"ibgeCode":"4100707","name":"Alto Piquiri","latitude":-24.09873,"longitude":-53.40198},{"ibgeCode":"4100509","name":"Altônia","latitude":-23.90318,"longitude":-53.94953},{"ibgeCode":"4100806","name":"Alvorada do Sul","latitude":-22.81169,"longitude":-51.25511},{"ibgeCode":"4100905","name":"Amaporã","latitude":-23.12861,"longitude":-52.83356},{"ibgeCode":"4101002","name":"Ampére","latitude":-25.91743,"longitude":-53.4808},{"ibgeCode":"4101051","name":"Anahy","latitude":-24.6449,"longitude":-53.14201},{"ibgeCode":"4101101","name":"Andirá","latitude":-23.01586,"longitude":-50.27152},{"ibgeCode":"4101150","name":"Ângulo","latitude":-23.19021,"longitude":-51.9174},{"ibgeCode":"4101200","name":"Antonina","latitude":-25.30459,"longitude":-48.72071},{"ibgeCode":"4101309","name":"Antônio Olinto","latitude":-25.95701,"longitude":-50.12996},{"ibgeCode":"4101408","name":"Apucarana","latitude":-23.57041,"longitude":-51.44325},{"ibgeCode":"4101507","name":"Arapongas","latitude":-23.43847,"longitude":-51.4276},{"ibgeCode":"4101606","name":"Arapoti","latitude":-24.09163,"longitude":-49.9761},{"ibgeCode":"4101655","name":"Arapuã","latitude":-24.34664,"longitude":-51.81753},{"ibgeCode":"4101705","name":"Araruna","latitude":-23.95401,"longitude":-52.57523},{"ibgeCode":"4101804","name":"Araucária","latitude":-25.60713,"longitude":-49.44067},{"ibgeCode":"4101853","name":"Ariranha do Ivaí","latitude":-24.37926,"longitude":-51.53564},{"ibgeCode":"4101903","name":"Assaí","latitude":-23.40807,"longitude":-50.87603},{"ibgeCode":"4102000","name":"Assis Chateaubriand","latitude":-24.42439,"longitude":-53.58424},{"ibgeCode":"4102109","name":"Astorga","latitude":-23.25052,"longitude":-51.6996},{"ibgeCode":"4102208","name":"Atalaia","latitude":-23.12947,"longitude":-52.06601},{"ibgeCode":"4102307","name":"Balsa Nova","latitude":-25.52254,"longitude":-49.68724},{"ibgeCode":"4102406","name":"Bandeirantes","latitude":-23.15925,"longitude":-50.34665},{"ibgeCode":"4102505","name":"Barbosa Ferraz","latitude":-24.08767,"longitude":-52.04469},{"ibgeCode":"4102703","name":"Barra do Jacaré","latitude":-23.10538,"longitude":-50.16135},{"ibgeCode":"4102604","name":"Barracão","latitude":-26.2467,"longitude":-53.52937},{"ibgeCode":"4102752","name":"Bela Vista da Caroba","latitude":-25.8829,"longitude":-53.63085},{"ibgeCode":"4102802","name":"Bela Vista do Paraíso","latitude":-23.00567,"longitude":-51.23841},{"ibgeCode":"4102901","name":"Bituruna","latitude":-26.16888,"longitude":-51.52844},{"ibgeCode":"4103008","name":"Boa Esperança","latitude":-24.25669,"longitude":-52.74997},{"ibgeCode":"4103024","name":"Boa Esperança do Iguaçu","latitude":-25.64101,"longitude":-53.2242},{"ibgeCode":"4103040","name":"Boa Ventura de São Roque","latitude":-24.8585,"longitude":-51.56919},{"ibgeCode":"4103057","name":"Boa Vista da Aparecida","latitude":-25.42855,"longitude":-53.42109},{"ibgeCode":"4103107","name":"Bocaiúva do Sul","latitude":-25.11516,"longitude":-48.93611},{"ibgeCode":"4103156","name":"Bom Jesus do Sul","latitude":-26.16341,"longitude":-53.55363},{"ibgeCode":"4103206","name":"Bom Sucesso","latitude":-23.71196,"longitude":-51.8276},{"ibgeCode":"4103222","name":"Bom Sucesso do Sul","latitude":-26.08581,"longitude":-52.83861},{"ibgeCode":"4103305","name":"Borrazópolis","latitude":-23.93812,"longitude":-51.59403},{"ibgeCode":"4103354","name":"Braganey","latitude":-24.80035,"longitude":-53.08859},{"ibgeCode":"4103370","name":"Brasilândia do Sul","latitude":-24.16495,"longitude":-53.54243},{"ibgeCode":"4103404","name":"Cafeara","latitude":-22.81307,"longitude":-51.71217},{"ibgeCode":"4103453","name":"Cafelândia","latitude":-24.69169,"longitude":-53.36674},{"ibgeCode":"4103479","name":"Cafezal do Sul","latitude":-23.94116,"longitude":-53.56054},{"ibgeCode":"4103503","name":"Califórnia","latitude":-23.67023,"longitude":-51.33407},{"ibgeCode":"4103602","name":"Cambará","latitude":-22.99426,"longitude":-50.08265},{"ibgeCode":"4103701","name":"Cambé","latitude":-23.17822,"longitude":-51.28401},{"ibgeCode":"4103800","name":"Cambira","latitude":-23.62827,"longitude":-51.567},{"ibgeCode":"4103909","name":"Campina da Lagoa","latitude":-24.6174,"longitude":-52.78749},{"ibgeCode":"4103958","name":"Campina do Simão","latitude":-25.13069,"longitude":-51.78154},{"ibgeCode":"4104006","name":"Campina Grande do Sul","latitude":-25.18923,"longitude":-48.8502},{"ibgeCode":"4104055","name":"Campo Bonito","latitude":-24.93393,"longitude":-53.014},{"ibgeCode":"4104105","name":"Campo do Tenente","latitude":-25.97731,"longitude":-49.65804},{"ibgeCode":"4104204","name":"Campo Largo","latitude":-25.29284,"longitude":-49.61877},{"ibgeCode":"4104253","name":"Campo Magro","latitude":-25.28917,"longitude":-49.46194},{"ibgeCode":"4104303","name":"Campo Mourão","latitude":-24.10404,"longitude":-52.3804},{"ibgeCode":"4104402","name":"Cândido de Abreu","latitude":-24.64768,"longitude":-51.25162},{"ibgeCode":"4104428","name":"Candói","latitude":-25.52125,"longitude":-52.01681},{"ibgeCode":"4104451","name":"Cantagalo","latitude":-25.2888,"longitude":-52.12949},{"ibgeCode":"4104501","name":"Capanema","latitude":-25.61104,"longitude":-53.76823},{"ibgeCode":"4104600","name":"Capitão Leônidas Marques","latitude":-25.47028,"longitude":-53.59149},{"ibgeCode":"4104659","name":"Carambeí","latitude":-24.89398,"longitude":-50.15051},{"ibgeCode":"4104709","name":"Carlópolis","latitude":-23.45988,"longitude":-49.71486},{"ibgeCode":"4104808","name":"Cascavel","latitude":-25.02654,"longitude":-53.37869},{"ibgeCode":"4104907","name":"Castro","latitude":-24.80027,"longitude":-49.84031},{"ibgeCode":"4105003","name":"Catanduvas","latitude":-25.24206,"longitude":-53.15524},{"ibgeCode":"4105102","name":"Centenário do Sul","latitude":-22.80627,"longitude":-51.56058},{"ibgeCode":"4105201","name":"Cerro Azul","latitude":-24.87689,"longitude":-49.2798},{"ibgeCode":"4105300","name":"Céu Azul","latitude":-25.24181,"longitude":-53.7622},{"ibgeCode":"4105409","name":"Chopinzinho","latitude":-25.81056,"longitude":-52.4525},{"ibgeCode":"4105508","name":"Cianorte","latitude":-23.72769,"longitude":-52.62735},{"ibgeCode":"4105607","name":"Cidade Gaúcha","latitude":-23.38431,"longitude":-52.95938},{"ibgeCode":"4105706","name":"Clevelândia","latitude":-26.34509,"longitude":-52.35582},{"ibgeCode":"4105805","name":"Colombo","latitude":-25.30477,"longitude":-49.18951},{"ibgeCode":"4105904","name":"Colorado","latitude":-22.8376,"longitude":-51.97086},{"ibgeCode":"4106001","name":"Congonhinhas","latitude":-23.60805,"longitude":-50.5046},{"ibgeCode":"4106100","name":"Conselheiro Mairinck","latitude":-23.59753,"longitude":-50.12929},{"ibgeCode":"4106209","name":"Contenda","latitude":-25.7221,"longitude":-49.52543},{"ibgeCode":"4106308","name":"Corbélia","latitude":-24.73771,"longitude":-53.23679},{"ibgeCode":"4106407","name":"Cornélio Procópio","latitude":-23.22731,"longitude":-50.6222},{"ibgeCode":"4106456","name":"Coronel Domingos Soares","latitude":-26.18459,"longitude":-51.92464},{"ibgeCode":"4106506","name":"Coronel Vivida","latitude":-25.99148,"longitude":-52.5641},{"ibgeCode":"4106555","name":"Corumbataí do Sul","latitude":-24.11985,"longitude":-52.14099},{"ibgeCode":"4106803","name":"Cruz Machado","latitude":-25.92183,"longitude":-51.22911},{"ibgeCode":"4106571","name":"Cruzeiro do Iguaçu","latitude":-25.59727,"longitude":-53.12648},{"ibgeCode":"4106605","name":"Cruzeiro do Oeste","latitude":-23.75633,"longitude":-53.08425},{"ibgeCode":"4106704","name":"Cruzeiro do Sul","latitude":-22.98881,"longitude":-52.16098},{"ibgeCode":"4106852","name":"Cruzmaltina","latitude":-24.01614,"longitude":-51.476},{"ibgeCode":"4106902","name":"Curitiba","latitude":-25.47703,"longitude":-49.28734},{"ibgeCode":"4107009","name":"Curiúva","latitude":-24.01283,"longitude":-50.46516},{"ibgeCode":"4107157","name":"Diamante D'Oeste","latitude":-24.95415,"longitude":-54.10086},{"ibgeCode":"4107108","name":"Diamante do Norte","latitude":-22.63525,"longitude":-52.89169},{"ibgeCode":"4107124","name":"Diamante do Sul","latitude":-24.98761,"longitude":-52.70288},{"ibgeCode":"4107207","name":"Dois Vizinhos","latitude":-25.75059,"longitude":-53.0754},{"ibgeCode":"4107256","name":"Douradina","latitude":-23.34754,"longitude":-53.28938},{"ibgeCode":"4107306","name":"Doutor Camargo","latitude":-23.55968,"longitude":-52.2161},{"ibgeCode":"4128633","name":"Doutor Ulysses","latitude":-24.62679,"longitude":-49.39301},{"ibgeCode":"4107405","name":"Enéas Marques","latitude":-25.90798,"longitude":-53.15486},{"ibgeCode":"4107504","name":"Engenheiro Beltrão","latitude":-23.75814,"longitude":-52.26877},{"ibgeCode":"4107538","name":"Entre Rios do Oeste","latitude":-24.7132,"longitude":-54.22475},{"ibgeCode":"4107520","name":"Esperança Nova","latitude":-23.71372,"longitude":-53.79599},{"ibgeCode":"4107546","name":"Espigão Alto do Iguaçu","latitude":-25.35339,"longitude":-52.78778},{"ibgeCode":"4107553","name":"Farol","latitude":-24.12241,"longitude":-52.63049},{"ibgeCode":"4107603","name":"Faxinal","latitude":-24.00431,"longitude":-51.28534},{"ibgeCode":"4107652","name":"Fazenda Rio Grande","latitude":-25.67761,"longitude":-49.29947},{"ibgeCode":"4107702","name":"Fênix","latitude":-23.90451,"longitude":-52.03522},{"ibgeCode":"4107736","name":"Fernandes Pinheiro","latitude":-25.51598,"longitude":-50.51102},{"ibgeCode":"4107751","name":"Figueira","latitude":-23.87809,"longitude":-50.43132},{"ibgeCode":"4107850","name":"Flor da Serra do Sul","latitude":-26.23771,"longitude":-53.29344},{"ibgeCode":"4107801","name":"Floraí","latitude":-23.33402,"longitude":-52.34752},{"ibgeCode":"4107900","name":"Floresta","latitude":-23.60549,"longitude":-52.08881},{"ibgeCode":"4108007","name":"Florestópolis","latitude":-22.89126,"longitude":-51.40173},{"ibgeCode":"4108106","name":"Flórida","latitude":-23.10626,"longitude":-51.95607},{"ibgeCode":"4108205","name":"Formosa do Oeste","latitude":-24.29477,"longitude":-53.33297},{"ibgeCode":"4108304","name":"Foz do Iguaçu","latitude":-25.46351,"longitude":-54.4846},{"ibgeCode":"4108452","name":"Foz do Jordão","latitude":-25.6977,"longitude":-52.08851},{"ibgeCode":"4108320","name":"Francisco Alves","latitude":-24.09233,"longitude":-53.87387},{"ibgeCode":"4108403","name":"Francisco Beltrão","latitude":-26.04812,"longitude":-53.13039},{"ibgeCode":"4108502","name":"General Carneiro","latitude":-26.47045,"longitude":-51.3922},{"ibgeCode":"4108551","name":"Godoy Moreira","latitude":-24.15963,"longitude":-51.90544},{"ibgeCode":"4108601","name":"Goioerê","latitude":-24.17272,"longitude":-53.05188},{"ibgeCode":"4108650","name":"Goioxim","latitude":-25.12981,"longitude":-51.99501},{"ibgeCode":"4108700","name":"Grandes Rios","latitude":-24.18801,"longitude":-51.44968},{"ibgeCode":"4108809","name":"Guaíra","latitude":-24.19074,"longitude":-54.23212},{"ibgeCode":"4108908","name":"Guairaçá","latitude":-22.92332,"longitude":-52.74056},{"ibgeCode":"4108957","name":"Guamiranga","latitude":-25.16924,"longitude":-50.83952},{"ibgeCode":"4109005","name":"Guapirama","latitude":-23.46507,"longitude":-50.07671},{"ibgeCode":"4109104","name":"Guaporema","latitude":-23.32608,"longitude":-52.82613},{"ibgeCode":"4109203","name":"Guaraci","latitude":-22.95656,"longitude":-51.67814},{"ibgeCode":"4109302","name":"Guaraniaçu","latitude":-25.05612,"longitude":-52.86299},{"ibgeCode":"4109401","name":"Guarapuava","latitude":-25.37178,"longitude":-51.48948},{"ibgeCode":"4109500","name":"Guaraqueçaba","latitude":-25.23349,"longitude":-48.36696},{"ibgeCode":"4109609","name":"Guaratuba","latitude":-25.81864,"longitude":-48.76737},{"ibgeCode":"4109658","name":"Honório Serpa","latitude":-26.16525,"longitude":-52.37376},{"ibgeCode":"4109708","name":"Ibaiti","latitude":-23.77834,"longitude":-50.28713},{"ibgeCode":"4109757","name":"Ibema","latitude":-25.1528,"longitude":-53.02343},{"ibgeCode":"4109807","name":"Ibiporã","latitude":-23.23387,"longitude":-51.0371},{"ibgeCode":"4109906","name":"Icaraíma","latitude":-23.37246,"longitude":-53.58662},{"ibgeCode":"4110003","name":"Iguaraçu","latitude":-23.22687,"longitude":-51.84798},{"ibgeCode":"4110052","name":"Iguatu","latitude":-24.68809,"longitude":-53.08663},{"ibgeCode":"4110078","name":"Imbaú","latitude":-24.43911,"longitude":-50.73896},{"ibgeCode":"4110102","name":"Imbituva","latitude":-25.22356,"longitude":-50.65635},{"ibgeCode":"4110201","name":"Inácio Martins","latitude":-25.63555,"longitude":-51.19709},{"ibgeCode":"4110300","name":"Inajá","latitude":-22.7197,"longitude":-52.22476},{"ibgeCode":"4110409","name":"Indianópolis","latitude":-23.48724,"longitude":-52.67336},{"ibgeCode":"4110508","name":"Ipiranga","latitude":-24.991,"longitude":-50.58811},{"ibgeCode":"4110607","name":"Iporã","latitude":-24.04427,"longitude":-53.72065},{"ibgeCode":"4110656","name":"Iracema do Oeste","latitude":-24.43825,"longitude":-53.35398},{"ibgeCode":"4110706","name":"Irati","latitude":-25.48811,"longitude":-50.82453},{"ibgeCode":"4110805","name":"Iretama","latitude":-24.35262,"longitude":-52.1133},{"ibgeCode":"4110904","name":"Itaguajé","latitude":-22.66193,"longitude":-51.96653},{"ibgeCode":"4110953","name":"Itaipulândia","latitude":-25.15774,"longitude":-54.35851},{"ibgeCode":"4111001","name":"Itambaracá","latitude":-22.98056,"longitude":-50.41365},{"ibgeCode":"4111100","name":"Itambé","latitude":-23.70404,"longitude":-52.00959},{"ibgeCode":"4111209","name":"Itapejara d'Oeste","latitude":-25.98715,"longitude":-52.82231},{"ibgeCode":"4111258","name":"Itaperuçu","latitude":-25.12545,"longitude":-49.48939},{"ibgeCode":"4111308","name":"Itaúna do Sul","latitude":-22.72928,"longitude":-52.89787},{"ibgeCode":"4111407","name":"Ivaí","latitude":-24.98557,"longitude":-50.8608},{"ibgeCode":"4111506","name":"Ivaiporã","latitude":-24.28205,"longitude":-51.62972},{"ibgeCode":"4111555","name":"Ivaté","latitude":-23.35219,"longitude":-53.42368},{"ibgeCode":"4111605","name":"Ivatuba","latitude":-23.59699,"longitude":-52.17724},{"ibgeCode":"4111704","name":"Jaboti","latitude":-23.722,"longitude":-50.07806},{"ibgeCode":"4111803","name":"Jacarezinho","latitude":-23.14856,"longitude":-49.9479},{"ibgeCode":"4111902","name":"Jaguapitã","latitude":-23.0655,"longitude":-51.55669},{"ibgeCode":"4112009","name":"Jaguariaíva","latitude":-24.33128,"longitude":-49.70466},{"ibgeCode":"4112108","name":"Jandaia do Sul","latitude":-23.62642,"longitude":-51.68547},{"ibgeCode":"4112207","name":"Janiópolis","latitude":-24.12742,"longitude":-52.8122},{"ibgeCode":"4112306","name":"Japira","latitude":-23.73047,"longitude":-50.16355},{"ibgeCode":"4112405","name":"Japurá","latitude":-23.44072,"longitude":-52.54092},{"ibgeCode":"4112504","name":"Jardim Alegre","latitude":-24.207,"longitude":-51.77089},{"ibgeCode":"4112603","name":"Jardim Olinda","latitude":-22.57298,"longitude":-52.0773},{"ibgeCode":"4112702","name":"Jataizinho","latitude":-23.25208,"longitude":-50.92525},{"ibgeCode":"4112751","name":"Jesuítas","latitude":-24.4131,"longitude":-53.41089},{"ibgeCode":"4112801","name":"Joaquim Távora","latitude":-23.45773,"longitude":-49.90937},{"ibgeCode":"4112900","name":"Jundiaí do Sul","latitude":-23.47484,"longitude":-50.2316},{"ibgeCode":"4112959","name":"Juranda","latitude":-24.39666,"longitude":-52.83361},{"ibgeCode":"4113007","name":"Jussara","latitude":-23.63647,"longitude":-52.44813},{"ibgeCode":"4113106","name":"Kaloré","latitude":-23.85808,"longitude":-51.68913},{"ibgeCode":"4113205","name":"Lapa","latitude":-25.76908,"longitude":-49.87072},{"ibgeCode":"4113254","name":"Laranjal","latitude":-24.90001,"longitude":-52.49051},{"ibgeCode":"4113304","name":"Laranjeiras do Sul","latitude":-25.34762,"longitude":-52.38128},{"ibgeCode":"4113403","name":"Leópolis","latitude":-23.0262,"longitude":-50.71034},{"ibgeCode":"4113429","name":"Lidianópolis","latitude":-24.0881,"longitude":-51.6367},{"ibgeCode":"4113452","name":"Lindoeste","latitude":-25.25981,"longitude":-53.55634},{"ibgeCode":"4113502","name":"Loanda","latitude":-22.94889,"longitude":-53.07205},{"ibgeCode":"4113601","name":"Lobato","latitude":-22.98527,"longitude":-51.98357},{"ibgeCode":"4113700","name":"Londrina","latitude":-23.51502,"longitude":-51.11023},{"ibgeCode":"4113734","name":"Luiziana","latitude":-24.3474,"longitude":-52.33064},{"ibgeCode":"4113759","name":"Lunardelli","latitude":-24.07838,"longitude":-51.76773},{"ibgeCode":"4113809","name":"Lupionópolis","latitude":-22.73001,"longitude":-51.66581},{"ibgeCode":"4113908","name":"Mallet","latitude":-25.88281,"longitude":-50.8561},{"ibgeCode":"4114005","name":"Mamborê","latitude":-24.36242,"longitude":-52.58792},{"ibgeCode":"4114104","name":"Mandaguaçu","latitude":-23.27791,"longitude":-52.05452},{"ibgeCode":"4114203","name":"Mandaguari","latitude":-23.4789,"longitude":-51.70404},{"ibgeCode":"4114302","name":"Mandirituba","latitude":-25.84173,"longitude":-49.32261},{"ibgeCode":"4114351","name":"Manfrinópolis","latitude":-26.09647,"longitude":-53.34281},{"ibgeCode":"4114401","name":"Mangueirinha","latitude":-26.03192,"longitude":-52.20938},{"ibgeCode":"4114500","name":"Manoel Ribas","latitude":-24.48941,"longitude":-51.63885},{"ibgeCode":"4114609","name":"Marechal Cândido Rondon","latitude":-24.572,"longitude":-54.13597},{"ibgeCode":"4114708","name":"Maria Helena","latitude":-23.5824,"longitude":-53.2212},{"ibgeCode":"4114807","name":"Marialva","latitude":-23.52605,"longitude":-51.86572},{"ibgeCode":"4114906","name":"Marilândia do Sul","latitude":-23.77681,"longitude":-51.28351},{"ibgeCode":"4115002","name":"Marilena","latitude":-22.73064,"longitude":-53.06423},{"ibgeCode":"4115101","name":"Mariluz","latitude":-24.05242,"longitude":-53.21148},{"ibgeCode":"4115200","name":"Maringá","latitude":-23.39923,"longitude":-51.96872},{"ibgeCode":"4115309","name":"Mariópolis","latitude":-26.33479,"longitude":-52.58062},{"ibgeCode":"4115358","name":"Maripá","latitude":-24.44464,"longitude":-53.79403},{"ibgeCode":"4115408","name":"Marmeleiro","latitude":-26.2491,"longitude":-53.09334},{"ibgeCode":"4115457","name":"Marquinho","latitude":-25.10074,"longitude":-52.25338},{"ibgeCode":"4115507","name":"Marumbi","latitude":-23.75455,"longitude":-51.66063},{"ibgeCode":"4115606","name":"Matelândia","latitude":-25.35304,"longitude":-53.90515},{"ibgeCode":"4115705","name":"Matinhos","latitude":-25.75855,"longitude":-48.55447},{"ibgeCode":"4115739","name":"Mato Rico","latitude":-24.7008,"longitude":-52.21113},{"ibgeCode":"4115754","name":"Mauá da Serra","latitude":-23.91175,"longitude":-51.18406},{"ibgeCode":"4115804","name":"Medianeira","latitude":-25.25893,"longitude":-54.09136},{"ibgeCode":"4115853","name":"Mercedes","latitude":-24.4339,"longitude":-54.18615},{"ibgeCode":"4115903","name":"Mirador","latitude":-23.20131,"longitude":-52.74603},{"ibgeCode":"4116000","name":"Miraselva","latitude":-22.97472,"longitude":-51.48505},{"ibgeCode":"4116059","name":"Missal","latitude":-25.09486,"longitude":-54.24358},{"ibgeCode":"4116109","name":"Moreira Sales","latitude":-24.024,"longitude":-53.00638},{"ibgeCode":"4116208","name":"Morretes","latitude":-25.52076,"longitude":-48.85676},{"ibgeCode":"4116307","name":"Munhoz de Melo","latitude":-23.1332,"longitude":-51.73488},{"ibgeCode":"4116406","name":"Nossa Senhora das Graças","latitude":-22.91373,"longitude":-51.79733},{"ibgeCode":"4116505","name":"Nova Aliança do Ivaí","latitude":-23.16904,"longitude":-52.6114},{"ibgeCode":"4116604","name":"Nova América da Colina","latitude":-23.34448,"longitude":-50.70955},{"ibgeCode":"4116703","name":"Nova Aurora","latitude":-24.49866,"longitude":-53.27678},{"ibgeCode":"4116802","name":"Nova Cantu","latitude":-24.65645,"longitude":-52.55853},{"ibgeCode":"4116901","name":"Nova Esperança","latitude":-23.19067,"longitude":-52.25206},{"ibgeCode":"4116950","name":"Nova Esperança do Sudoeste","latitude":-25.89791,"longitude":-53.25806},{"ibgeCode":"4117008","name":"Nova Fátima","latitude":-23.4177,"longitude":-50.5394},{"ibgeCode":"4117057","name":"Nova Laranjeiras","latitude":-25.22473,"longitude":-52.57421},{"ibgeCode":"4117107","name":"Nova Londrina","latitude":-22.78872,"longitude":-52.95493},{"ibgeCode":"4117206","name":"Nova Olímpia","latitude":-23.42679,"longitude":-53.07219},{"ibgeCode":"4117255","name":"Nova Prata do Iguaçu","latitude":-25.59012,"longitude":-53.37748},{"ibgeCode":"4117214","name":"Nova Santa Bárbara","latitude":-23.59168,"longitude":-50.74058},{"ibgeCode":"4117222","name":"Nova Santa Rosa","latitude":-24.441,"longitude":-53.96279},{"ibgeCode":"4117271","name":"Nova Tebas","latitude":-24.45847,"longitude":-51.94358},{"ibgeCode":"4117297","name":"Novo Itacolomi","latitude":-23.77868,"longitude":-51.53389},{"ibgeCode":"4117305","name":"Ortigueira","latitude":-24.13587,"longitude":-50.94822},{"ibgeCode":"4117404","name":"Ourizona","latitude":-23.45795,"longitude":-52.23053},{"ibgeCode":"4117453","name":"Ouro Verde do Oeste","latitude":-24.79417,"longitude":-53.90992},{"ibgeCode":"4117503","name":"Paiçandu","latitude":-23.46373,"longitude":-52.12034},{"ibgeCode":"4117602","name":"Palmas","latitude":-26.45224,"longitude":-51.81201},{"ibgeCode":"4117701","name":"Palmeira","latitude":-25.44257,"longitude":-50.05719},{"ibgeCode":"4117800","name":"Palmital","latitude":-24.87603,"longitude":-52.26724},{"ibgeCode":"4117909","name":"Palotina","latitude":-24.27381,"longitude":-53.82483},{"ibgeCode":"4118006","name":"Paraíso do Norte","latitude":-23.26721,"longitude":-52.63351},{"ibgeCode":"4118105","name":"Paranacity","latitude":-22.84654,"longitude":-52.14281},{"ibgeCode":"4118204","name":"Paranaguá","latitude":-25.52892,"longitude":-48.51808},{"ibgeCode":"4118303","name":"Paranapoema","latitude":-22.65899,"longitude":-52.09954},{"ibgeCode":"4118402","name":"Paranavaí","latitude":-22.9216,"longitude":-52.51181},{"ibgeCode":"4118451","name":"Pato Bragado","latitude":-24.63336,"longitude":-54.24945},{"ibgeCode":"4118501","name":"Pato Branco","latitude":-26.16826,"longitude":-52.66086},{"ibgeCode":"4118600","name":"Paula Freitas","latitude":-26.17815,"longitude":-50.86059},{"ibgeCode":"4118709","name":"Paulo Frontin","latitude":-26.06239,"longitude":-50.75157},{"ibgeCode":"4118808","name":"Peabiru","latitude":-23.93146,"longitude":-52.32399},{"ibgeCode":"4118857","name":"Perobal","latitude":-23.92174,"longitude":-53.36561},{"ibgeCode":"4118907","name":"Pérola","latitude":-23.83229,"longitude":-53.70556},{"ibgeCode":"4119004","name":"Pérola d'Oeste","latitude":-25.85066,"longitude":-53.75705},{"ibgeCode":"4119103","name":"Piên","latitude":-26.09091,"longitude":-49.45466},{"ibgeCode":"4119152","name":"Pinhais","latitude":-25.41935,"longitude":-49.15579},{"ibgeCode":"4119251","name":"Pinhal de São Bento","latitude":-26.01635,"longitude":-53.47298},{"ibgeCode":"4119202","name":"Pinhalão","latitude":-23.90285,"longitude":-50.06088},{"ibgeCode":"4119301","name":"Pinhão","latitude":-25.78506,"longitude":-51.63332},{"ibgeCode":"4119400","name":"Piraí do Sul","latitude":-24.47552,"longitude":-49.92889},{"ibgeCode":"4119509","name":"Piraquara","latitude":-25.47407,"longitude":-49.04946},{"ibgeCode":"4119608","name":"Pitanga","latitude":-24.69146,"longitude":-51.77974},{"ibgeCode":"4119657","name":"Pitangueiras","latitude":-23.20609,"longitude":-51.57343},{"ibgeCode":"4119707","name":"Planaltina do Paraná","latitude":-23.09479,"longitude":-52.93447},{"ibgeCode":"4119806","name":"Planalto","latitude":-25.73771,"longitude":-53.70921},{"ibgeCode":"4119905","name":"Ponta Grossa","latitude":-25.14099,"longitude":-50.07875},{"ibgeCode":"4119954","name":"Pontal do Paraná","latitude":-25.63282,"longitude":-48.47258},{"ibgeCode":"4120002","name":"Porecatu","latitude":-22.7412,"longitude":-51.41059},{"ibgeCode":"4120101","name":"Porto Amazonas","latitude":-25.53055,"longitude":-49.89561},{"ibgeCode":"4120150","name":"Porto Barreiro","latitude":-25.58556,"longitude":-52.3822},{"ibgeCode":"4120200","name":"Porto Rico","latitude":-22.83522,"longitude":-53.31032},{"ibgeCode":"4120309","name":"Porto Vitória","latitude":-26.2291,"longitude":-51.22456},{"ibgeCode":"4120333","name":"Prado Ferreira","latitude":-23.02425,"longitude":-51.40462},{"ibgeCode":"4120358","name":"Pranchita","latitude":-25.967,"longitude":-53.72407},{"ibgeCode":"4120408","name":"Presidente Castelo Branco","latitude":-23.26566,"longitude":-52.15001},{"ibgeCode":"4120507","name":"Primeiro de Maio","latitude":-22.85854,"longitude":-51.07326},{"ibgeCode":"4120606","name":"Prudentópolis","latitude":-25.13002,"longitude":-51.0978},{"ibgeCode":"4120655","name":"Quarto Centenário","latitude":-24.30349,"longitude":-53.15486},{"ibgeCode":"4120705","name":"Quatiguá","latitude":-23.56418,"longitude":-49.93261},{"ibgeCode":"4120804","name":"Quatro Barras","latitude":-25.3703,"longitude":-48.99792},{"ibgeCode":"4120853","name":"Quatro Pontes","latitude":-24.57049,"longitude":-53.97401},{"ibgeCode":"4120903","name":"Quedas do Iguaçu","latitude":-25.45696,"longitude":-52.95439},{"ibgeCode":"4121000","name":"Querência do Norte","latitude":-23.04219,"longitude":-53.5211},{"ibgeCode":"4121109","name":"Quinta do Sol","latitude":-23.82713,"longitude":-52.13914},{"ibgeCode":"4121208","name":"Quitandinha","latitude":-25.91114,"longitude":-49.47899},{"ibgeCode":"4121257","name":"Ramilândia","latitude":-25.09384,"longitude":-54.07456},{"ibgeCode":"4121307","name":"Rancho Alegre","latitude":-23.0778,"longitude":-50.91627},{"ibgeCode":"4121356","name":"Rancho Alegre D'Oeste","latitude":-24.28879,"longitude":-52.9583},{"ibgeCode":"4121406","name":"Realeza","latitude":-25.67272,"longitude":-53.54614},{"ibgeCode":"4121505","name":"Rebouças","latitude":-25.66002,"longitude":-50.62104},{"ibgeCode":"4121604","name":"Renascença","latitude":-26.22407,"longitude":-52.95141},{"ibgeCode":"4121703","name":"Reserva","latitude":-24.59506,"longitude":-50.9557},{"ibgeCode":"4121752","name":"Reserva do Iguaçu","latitude":-25.86751,"longitude":-51.96367},{"ibgeCode":"4121802","name":"Ribeirão Claro","latitude":-23.26143,"longitude":-49.76061},{"ibgeCode":"4121901","name":"Ribeirão do Pinhal","latitude":-23.45022,"longitude":-50.3728},{"ibgeCode":"4122008","name":"Rio Azul","latitude":-25.7211,"longitude":-50.79429},{"ibgeCode":"4122107","name":"Rio Bom","latitude":-23.79581,"longitude":-51.43412},{"ibgeCode":"4122156","name":"Rio Bonito do Iguaçu","latitude":-25.54609,"longitude":-52.60975},{"ibgeCode":"4122172","name":"Rio Branco do Ivaí","latitude":-24.34658,"longitude":-51.3368},{"ibgeCode":"4122206","name":"Rio Branco do Sul","latitude":-25.07781,"longitude":-49.34796},{"ibgeCode":"4122305","name":"Rio Negro","latitude":-26.09573,"longitude":-49.6822},{"ibgeCode":"4122404","name":"Rolândia","latitude":-23.27077,"longitude":-51.40999},{"ibgeCode":"4122503","name":"Roncador","latitude":-24.56507,"longitude":-52.25856},{"ibgeCode":"4122602","name":"Rondon","latitude":-23.47729,"longitude":-52.80442},{"ibgeCode":"4122651","name":"Rosário do Ivaí","latitude":-24.31602,"longitude":-51.20254},{"ibgeCode":"4122701","name":"Sabáudia","latitude":-23.34782,"longitude":-51.58348},{"ibgeCode":"4122800","name":"Salgado Filho","latitude":-26.13921,"longitude":-53.41889},{"ibgeCode":"4122909","name":"Salto do Itararé","latitude":-23.62926,"longitude":-49.67743},{"ibgeCode":"4123006","name":"Salto do Lontra","latitude":-25.77576,"longitude":-53.28822},{"ibgeCode":"4123105","name":"Santa Amélia","latitude":-23.25723,"longitude":-50.40719},{"ibgeCode":"4123204","name":"Santa Cecília do Pavão","latitude":-23.54406,"longitude":-50.79965},{"ibgeCode":"4123303","name":"Santa Cruz de Monte Castelo","latitude":-23.08126,"longitude":-53.36246},{"ibgeCode":"4123402","name":"Santa Fé","latitude":-23.06566,"longitude":-51.83714},{"ibgeCode":"4123501","name":"Santa Helena","latitude":-24.88853,"longitude":-54.30705},{"ibgeCode":"4123600","name":"Santa Inês","latitude":-22.71219,"longitude":-51.8968},{"ibgeCode":"4123709","name":"Santa Isabel do Ivaí","latitude":-23.11296,"longitude":-53.24166},{"ibgeCode":"4123808","name":"Santa Izabel do Oeste","latitude":-25.78003,"longitude":-53.42539},{"ibgeCode":"4123824","name":"Santa Lúcia","latitude":-25.38314,"longitude":-53.55707},{"ibgeCode":"4123857","name":"Santa Maria do Oeste","latitude":-24.908,"longitude":-51.92965},{"ibgeCode":"4123907","name":"Santa Mariana","latitude":-23.06042,"longitude":-50.53818},{"ibgeCode":"4123956","name":"Santa Mônica","latitude":-23.15441,"longitude":-53.10864},{"ibgeCode":"4124020","name":"Santa Tereza do Oeste","latitude":-25.03769,"longitude":-53.6057},{"ibgeCode":"4124053","name":"Santa Terezinha de Itaipu","latitude":-25.45361,"longitude":-54.42932},{"ibgeCode":"4124004","name":"Santana do Itararé","latitude":-23.74975,"longitude":-49.63122},{"ibgeCode":"4124103","name":"Santo Antônio da Platina","latitude":-23.29558,"longitude":-50.08493},{"ibgeCode":"4124202","name":"Santo Antônio do Caiuá","latitude":-22.69917,"longitude":-52.35486},{"ibgeCode":"4124301","name":"Santo Antônio do Paraíso","latitude":-23.58325,"longitude":-50.63106},{"ibgeCode":"4124400","name":"Santo Antônio do Sudoeste","latitude":-26.06467,"longitude":-53.63163},{"ibgeCode":"4124509","name":"Santo Inácio","latitude":-22.71944,"longitude":-51.80318},{"ibgeCode":"4124608","name":"São Carlos do Ivaí","latitude":-23.34486,"longitude":-52.47843},{"ibgeCode":"4124707","name":"São Jerônimo da Serra","latitude":-23.71774,"longitude":-50.77749},{"ibgeCode":"4124806","name":"São João","latitude":-25.77534,"longitude":-52.79582},{"ibgeCode":"4124905","name":"São João do Caiuá","latitude":-22.83988,"longitude":-52.33141},{"ibgeCode":"4125001","name":"São João do Ivaí","latitude":-23.99096,"longitude":-51.84903},{"ibgeCode":"4125100","name":"São João do Triunfo","latitude":-25.66782,"longitude":-50.28913},{"ibgeCode":"4125209","name":"São Jorge d'Oeste","latitude":-25.65849,"longitude":-52.93848},{"ibgeCode":"4125308","name":"São Jorge do Ivaí","latitude":-23.43625,"longitude":-52.31761},{"ibgeCode":"4125357","name":"São Jorge do Patrocínio","latitude":-23.73808,"longitude":-53.94664},{"ibgeCode":"4125407","name":"São José da Boa Vista","latitude":-23.9572,"longitude":-49.67022},{"ibgeCode":"4125456","name":"São José das Palmeiras","latitude":-24.81518,"longitude":-54.11936},{"ibgeCode":"4125506","name":"São José dos Pinhais","latitude":-25.66486,"longitude":-49.09777},{"ibgeCode":"4125555","name":"São Manoel do Paraná","latitude":-23.37278,"longitude":-52.61253},{"ibgeCode":"4125605","name":"São Mateus do Sul","latitude":-25.9097,"longitude":-50.44256},{"ibgeCode":"4125704","name":"São Miguel do Iguaçu","latitude":-25.38882,"longitude":-54.2608},{"ibgeCode":"4125753","name":"São Pedro do Iguaçu","latitude":-24.90778,"longitude":-53.88691},{"ibgeCode":"4125803","name":"São Pedro do Ivaí","latitude":-23.84374,"longitude":-51.87012},{"ibgeCode":"4125902","name":"São Pedro do Paraná","latitude":-22.78117,"longitude":-53.17819},{"ibgeCode":"4126009","name":"São Sebastião da Amoreira","latitude":-23.45301,"longitude":-50.72202},{"ibgeCode":"4126108","name":"São Tomé","latitude":-23.52595,"longitude":-52.54129},{"ibgeCode":"4126207","name":"Sapopema","latitude":-23.87628,"longitude":-50.60562},{"ibgeCode":"4126256","name":"Sarandi","latitude":-23.46887,"longitude":-51.86799},{"ibgeCode":"4126272","name":"Saudade do Iguaçu","latitude":-25.70907,"longitude":-52.6063},{"ibgeCode":"4126306","name":"Sengés","latitude":-24.24902,"longitude":-49.45606},{"ibgeCode":"4126355","name":"Serranópolis do Iguaçu","latitude":-25.47169,"longitude":-54.02468},{"ibgeCode":"4126405","name":"Sertaneja","latitude":-22.93545,"longitude":-50.87341},{"ibgeCode":"4126504","name":"Sertanópolis","latitude":-23.0554,"longitude":-51.07227},{"ibgeCode":"4126603","name":"Siqueira Campos","latitude":-23.64148,"longitude":-49.79115},{"ibgeCode":"4126652","name":"Sulina","latitude":-25.69078,"longitude":-52.72307},{"ibgeCode":"4126678","name":"Tamarana","latitude":-23.82223,"longitude":-51.05205},{"ibgeCode":"4126702","name":"Tamboara","latitude":-23.19896,"longitude":-52.48396},{"ibgeCode":"4126801","name":"Tapejara","latitude":-23.65886,"longitude":-52.88881},{"ibgeCode":"4126900","name":"Tapira","latitude":-23.33025,"longitude":-53.13454},{"ibgeCode":"4127007","name":"Teixeira Soares","latitude":-25.31556,"longitude":-50.40969},{"ibgeCode":"4127106","name":"Telêmaco Borba","latitude":-24.24929,"longitude":-50.52315},{"ibgeCode":"4127205","name":"Terra Boa","latitude":-23.69604,"longitude":-52.38742},{"ibgeCode":"4127304","name":"Terra Rica","latitude":-22.72964,"longitude":-52.68218},{"ibgeCode":"4127403","name":"Terra Roxa","latitude":-24.20944,"longitude":-54.06403},{"ibgeCode":"4127502","name":"Tibagi","latitude":-24.65812,"longitude":-50.46792},{"ibgeCode":"4127601","name":"Tijucas do Sul","latitude":-25.90046,"longitude":-49.11202},{"ibgeCode":"4127700","name":"Toledo","latitude":-24.70554,"longitude":-53.77876},{"ibgeCode":"4127809","name":"Tomazina","latitude":-23.72163,"longitude":-49.96379},{"ibgeCode":"4127858","name":"Três Barras do Paraná","latitude":-25.44053,"longitude":-53.22285},{"ibgeCode":"4127882","name":"Tunas do Paraná","latitude":-24.95228,"longitude":-48.90163},{"ibgeCode":"4127908","name":"Tuneiras do Oeste","latitude":-23.87922,"longitude":-52.84394},{"ibgeCode":"4127957","name":"Tupãssi","latitude":-24.64543,"longitude":-53.51188},{"ibgeCode":"4127965","name":"Turvo","latitude":-25.01208,"longitude":-51.47951},{"ibgeCode":"4128005","name":"Ubiratã","latitude":-24.50535,"longitude":-53.01937},{"ibgeCode":"4128104","name":"Umuarama","latitude":-23.67777,"longitude":-53.41632},{"ibgeCode":"4128203","name":"União da Vitória","latitude":-26.11037,"longitude":-51.07521},{"ibgeCode":"4128302","name":"Uniflor","latitude":-23.06669,"longitude":-52.10716},{"ibgeCode":"4128401","name":"Uraí","latitude":-23.21571,"longitude":-50.82958},{"ibgeCode":"4128534","name":"Ventania","latitude":-24.18924,"longitude":-50.23866},{"ibgeCode":"4128559","name":"Vera Cruz do Oeste","latitude":-25.00815,"longitude":-53.91983},{"ibgeCode":"4128609","name":"Verê","latitude":-25.88024,"longitude":-52.95876},{"ibgeCode":"4128658","name":"Virmond","latitude":-25.40721,"longitude":-52.23678},{"ibgeCode":"4128708","name":"Vitorino","latitude":-26.27878,"longitude":-52.80673},{"ibgeCode":"4128500","name":"Wenceslau Braz","latitude":-23.85606,"longitude":-49.7836},{"ibgeCode":"4128807","name":"Xambrê","latitude":-23.73586,"longitude":-53.59252}]}
